{
"type": "FeatureCollection",
"crs": { "type": "name", "properties": { "name": "urn:ogc:def:crs:OGC:1.3:CRS84" } },
                                                                                
"features": [
{ "type": "Feature", "properties": { "Name": "Parkesburg Borough Police Department", "Description": "http:\/\/navigator.er.usgs.gov\/browse\/node\/1717199" }, "geometry": { "type": "Point", "coordinates": [ -75.9173807, 39.959585500000102, 0.0 ] } },
{ "type": "Feature", "properties": { "Name": "Salem Township Police Department", "Description": "http:\/\/navigator.er.usgs.gov\/browse\/node\/1717313" }, "geometry": { "type": "Point", "coordinates": [ -76.2138209, 41.065415, 0.0 ] } },
{ "type": "Feature", "properties": { "Name": "Pennsylvania State Police Troop F Selinsgrove Station", "Description": "http:\/\/navigator.er.usgs.gov\/browse\/node\/1717364" }, "geometry": { "type": "Point", "coordinates": [ -76.9130094, 40.808840400000101, 0.0 ] } },
{ "type": "Feature", "properties": { "Name": "Bendersville Borough Police Department", "Description": "http:\/\/navigator.er.usgs.gov\/browse\/node\/1717368" }, "geometry": { "type": "Point", "coordinates": [ -77.247633, 39.984110100000102, 0.0 ] } },
{ "type": "Feature", "properties": { "Name": "Blossburg City Police Office", "Description": "http:\/\/navigator.er.usgs.gov\/browse\/node\/1717469" }, "geometry": { "type": "Point", "coordinates": [ -77.0649557, 41.6808491, 0.0 ] } },
{ "type": "Feature", "properties": { "Name": "Shiremanstown Police Department", "Description": "http:\/\/navigator.er.usgs.gov\/browse\/node\/1717505" }, "geometry": { "type": "Point", "coordinates": [ -76.9518653, 40.2248544, 0.0 ] } },
{ "type": "Feature", "properties": { "Name": "Downingtown Police Department", "Description": "http:\/\/navigator.er.usgs.gov\/browse\/node\/1717509" }, "geometry": { "type": "Point", "coordinates": [ -75.705442699999907, 40.005279100000102, 0.0 ] } },
{ "type": "Feature", "properties": { "Name": "Vernon Township Police Department", "Description": "http:\/\/navigator.er.usgs.gov\/browse\/node\/1717547" }, "geometry": { "type": "Point", "coordinates": [ -80.2023094, 41.616885900000099, 0.0 ] } },
{ "type": "Feature", "properties": { "Name": "Philadelphia Sheriff's Office", "Description": "http:\/\/navigator.er.usgs.gov\/browse\/node\/1717589" }, "geometry": { "type": "Point", "coordinates": [ -75.164374199999898, 39.950432, 0.0 ] } },
{ "type": "Feature", "properties": { "Name": "Yeadon Police Department", "Description": "http:\/\/navigator.er.usgs.gov\/browse\/node\/1717696" }, "geometry": { "type": "Point", "coordinates": [ -75.2534544, 39.9360763, 0.0 ] } },
{ "type": "Feature", "properties": { "Name": "Youngsville Borough Police Department", "Description": "http:\/\/navigator.er.usgs.gov\/browse\/node\/1717701" }, "geometry": { "type": "Point", "coordinates": [ -79.317490899999896, 41.8504353000001, 0.0 ] } },
{ "type": "Feature", "properties": { "Name": "Corry Police Department", "Description": "http:\/\/navigator.er.usgs.gov\/browse\/node\/1717720" }, "geometry": { "type": "Point", "coordinates": [ -79.6392488, 41.919566900000099, 0.0 ] } },
{ "type": "Feature", "properties": { "Name": "Biglerville Police Department", "Description": "http:\/\/navigator.er.usgs.gov\/browse\/node\/1717792" }, "geometry": { "type": "Point", "coordinates": [ -77.245622899999901, 39.929406200000102, 0.0 ] } },
{ "type": "Feature", "properties": { "Name": "East Fallowfield Township Police Department", "Description": "http:\/\/navigator.er.usgs.gov\/browse\/node\/1717793" }, "geometry": { "type": "Point", "coordinates": [ -75.8420445, 39.9593511, 0.0 ] } },
{ "type": "Feature", "properties": { "Name": "Conewango Township Police", "Description": "http:\/\/navigator.er.usgs.gov\/browse\/node\/1717853" }, "geometry": { "type": "Point", "coordinates": [ -79.2048169, 41.841175900000103, 0.0 ] } },
{ "type": "Feature", "properties": { "Name": "Warren County Sheriff's Office", "Description": "http:\/\/navigator.er.usgs.gov\/browse\/node\/1717985" }, "geometry": { "type": "Point", "coordinates": [ -79.1471225, 41.848961, 0.0 ] } },
{ "type": "Feature", "properties": { "Name": "Conewago Township Police Department", "Description": "http:\/\/navigator.er.usgs.gov\/browse\/node\/1718015" }, "geometry": { "type": "Point", "coordinates": [ -77.023228, 39.820035200000099, 0.0 ] } },
{ "type": "Feature", "properties": { "Name": "Briar Creek Township Police Department", "Description": "http:\/\/navigator.er.usgs.gov\/browse\/node\/1718016" }, "geometry": { "type": "Point", "coordinates": [ -76.2713494, 41.094222800000097, 0.0 ] } },
{ "type": "Feature", "properties": { "Name": "North Woodbury Township Police Department", "Description": "http:\/\/navigator.er.usgs.gov\/browse\/node\/1718029" }, "geometry": { "type": "Point", "coordinates": [ -78.3323717, 40.290382400000098, 0.0 ] } },
{ "type": "Feature", "properties": { "Name": "Philadelphia Police Department-7th District", "Description": "http:\/\/navigator.er.usgs.gov\/browse\/node\/1718030" }, "geometry": { "type": "Point", "coordinates": [ -75.031959399999906, 40.090913800000102, 0.0 ] } },
{ "type": "Feature", "properties": { "Name": "Harrisburg City Bureau of Police", "Description": "http:\/\/navigator.er.usgs.gov\/browse\/node\/1718035" }, "geometry": { "type": "Point", "coordinates": [ -76.8833758, 40.2598786, 0.0 ] } },
{ "type": "Feature", "properties": { "Name": "South Centre Township Police Department", "Description": "http:\/\/navigator.er.usgs.gov\/browse\/node\/1718041" }, "geometry": { "type": "Point", "coordinates": [ -76.344498299999898, 41.0247993, 0.0 ] } },
{ "type": "Feature", "properties": { "Name": "Crawford County Sheriff's Department", "Description": "http:\/\/navigator.er.usgs.gov\/browse\/node\/1718046" }, "geometry": { "type": "Point", "coordinates": [ -80.149142299999895, 41.638338400000102, 0.0 ] } },
{ "type": "Feature", "properties": { "Name": "Susquehanna Regional Police", "Description": "http:\/\/navigator.er.usgs.gov\/browse\/node\/1718052" }, "geometry": { "type": "Point", "coordinates": [ -76.5737281, 40.0778928, 0.0 ] } },
{ "type": "Feature", "properties": { "Name": "Fairchance Police Department", "Description": "http:\/\/navigator.er.usgs.gov\/browse\/node\/1718065" }, "geometry": { "type": "Point", "coordinates": [ -79.7576791, 39.820469000000102, 0.0 ] } },
{ "type": "Feature", "properties": { "Name": "Elizabeth Borough Police Department", "Description": "http:\/\/navigator.er.usgs.gov\/browse\/node\/1718090" }, "geometry": { "type": "Point", "coordinates": [ -79.887457799999893, 40.271866100000103, 0.0 ] } },
{ "type": "Feature", "properties": { "Name": "Pennsylvania State Police Troop T Gibsonia Station", "Description": "http:\/\/navigator.er.usgs.gov\/browse\/node\/1718096" }, "geometry": { "type": "Point", "coordinates": [ -79.93861, 40.605616100000098, 0.0 ] } },
{ "type": "Feature", "properties": { "Name": "Dauphin County Sheriff", "Description": "http:\/\/navigator.er.usgs.gov\/browse\/node\/1718154" }, "geometry": { "type": "Point", "coordinates": [ -76.882292199999895, 40.2586711000001, 0.0 ] } },
{ "type": "Feature", "properties": { "Name": "Pennsylvania State Police Troop M Fogelsville Station", "Description": "http:\/\/navigator.er.usgs.gov\/browse\/node\/1718288" }, "geometry": { "type": "Point", "coordinates": [ -75.6287535, 40.566449600000098, 0.0 ] } },
{ "type": "Feature", "properties": { "Name": "Knoxville Borough Police Department", "Description": "http:\/\/navigator.er.usgs.gov\/browse\/node\/1718353" }, "geometry": { "type": "Point", "coordinates": [ -77.4358084, 41.9568053, 0.0 ] } },
{ "type": "Feature", "properties": { "Name": "Lock Haven Police Department", "Description": "http:\/\/navigator.er.usgs.gov\/browse\/node\/1718412" }, "geometry": { "type": "Point", "coordinates": [ -77.4484152, 41.1360638, 0.0 ] } },
{ "type": "Feature", "properties": { "Name": "Pennsylvania State Police Troop F Mansfield Station", "Description": "http:\/\/navigator.er.usgs.gov\/browse\/node\/1718419" }, "geometry": { "type": "Point", "coordinates": [ -77.1199503, 41.7926563, 0.0 ] } },
{ "type": "Feature", "properties": { "Name": "Swatara Twp Police Department", "Description": "http:\/\/navigator.er.usgs.gov\/browse\/node\/1718437" }, "geometry": { "type": "Point", "coordinates": [ -76.811868199999907, 40.2463188, 0.0 ] } },
{ "type": "Feature", "properties": { "Name": "Columbia BoroughPolice Department ", "Description": "http:\/\/navigator.er.usgs.gov\/browse\/node\/1718454" }, "geometry": { "type": "Point", "coordinates": [ -76.502133199999903, 40.0319287, 0.0 ] } },
{ "type": "Feature", "properties": { "Name": "Susquehanna Twp Police Department", "Description": "http:\/\/navigator.er.usgs.gov\/browse\/node\/1718480" }, "geometry": { "type": "Point", "coordinates": [ -76.8716492, 40.3281415000001, 0.0 ] } },
{ "type": "Feature", "properties": { "Name": "Philadelphia Police Department-5th District", "Description": "http:\/\/navigator.er.usgs.gov\/browse\/node\/1718502" }, "geometry": { "type": "Point", "coordinates": [ -75.224639, 40.039946800000102, 0.0 ] } },
{ "type": "Feature", "properties": { "Name": "Philadelphia Police Department-14th District", "Description": "http:\/\/navigator.er.usgs.gov\/browse\/node\/1718660" }, "geometry": { "type": "Point", "coordinates": [ -75.1780835, 40.0377597, 0.0 ] } },
{ "type": "Feature", "properties": { "Name": "York City Police Dept Community Policing Station", "Description": "http:\/\/navigator.er.usgs.gov\/browse\/node\/1718714" }, "geometry": { "type": "Point", "coordinates": [ -76.71161, 39.9666700000001, 0.0 ] } },
{ "type": "Feature", "properties": { "Name": "York City Police Dept Community Policing Station", "Description": "http:\/\/navigator.er.usgs.gov\/browse\/node\/1718733" }, "geometry": { "type": "Point", "coordinates": [ -76.72425, 39.95652, 0.0 ] } },
{ "type": "Feature", "properties": { "Name": "West Chester Police Department", "Description": "http:\/\/navigator.er.usgs.gov\/browse\/node\/1718760" }, "geometry": { "type": "Point", "coordinates": [ -75.598852, 39.963688900000101, 0.0 ] } },
{ "type": "Feature", "properties": { "Name": "Valley Township Police Department", "Description": "http:\/\/navigator.er.usgs.gov\/browse\/node\/1718819" }, "geometry": { "type": "Point", "coordinates": [ -75.8460415, 39.983814100000103, 0.0 ] } },
{ "type": "Feature", "properties": { "Name": "Philadelphia Police Department-17th District", "Description": "http:\/\/navigator.er.usgs.gov\/browse\/node\/1718831" }, "geometry": { "type": "Point", "coordinates": [ -75.177016599999902, 39.936791900000102, 0.0 ] } },
{ "type": "Feature", "properties": { "Name": "Spring Garden Township Police Dept", "Description": "http:\/\/navigator.er.usgs.gov\/browse\/node\/1719013" }, "geometry": { "type": "Point", "coordinates": [ -76.709078599999899, 39.942052400000101, 0.0 ] } },
{ "type": "Feature", "properties": { "Name": "Northeastern Regional Police", "Description": "http:\/\/navigator.er.usgs.gov\/browse\/node\/1719065" }, "geometry": { "type": "Point", "coordinates": [ -76.705581999999893, 40.080095200000102, 0.0 ] } },
{ "type": "Feature", "properties": { "Name": "Sadsbury Township Police Department", "Description": "http:\/\/navigator.er.usgs.gov\/browse\/node\/1719103" }, "geometry": { "type": "Point", "coordinates": [ -75.8875184, 39.9817793, 0.0 ] } },
{ "type": "Feature", "properties": { "Name": "Cranesville Police Department", "Description": "http:\/\/navigator.er.usgs.gov\/browse\/node\/1719187" }, "geometry": { "type": "Point", "coordinates": [ -80.3365598, 41.983611500000102, 0.0 ] } },
{ "type": "Feature", "properties": { "Name": "Philadelphia Police Department-6th District", "Description": "http:\/\/navigator.er.usgs.gov\/browse\/node\/1719217" }, "geometry": { "type": "Point", "coordinates": [ -75.157014699999905, 39.956627, 0.0 ] } },
{ "type": "Feature", "properties": { "Name": "Pennsylvania State Police Troop H Gettysburg Station", "Description": "http:\/\/navigator.er.usgs.gov\/browse\/node\/1719279" }, "geometry": { "type": "Point", "coordinates": [ -77.1839279, 39.8991111, 0.0 ] } },
{ "type": "Feature", "properties": { "Name": "Caln Township Police Department", "Description": "http:\/\/navigator.er.usgs.gov\/browse\/node\/1719294" }, "geometry": { "type": "Point", "coordinates": [ -75.753870499999906, 39.999444100000098, 0.0 ] } },
{ "type": "Feature", "properties": { "Name": "Nescopeck Borough Police Department", "Description": "http:\/\/navigator.er.usgs.gov\/browse\/node\/1719327" }, "geometry": { "type": "Point", "coordinates": [ -76.220687499999897, 41.0541459, 0.0 ] } },
{ "type": "Feature", "properties": { "Name": "Newberry Township Police Department", "Description": "http:\/\/navigator.er.usgs.gov\/browse\/node\/1719346" }, "geometry": { "type": "Point", "coordinates": [ -76.8056898, 40.134770300000099, 0.0 ] } },
{ "type": "Feature", "properties": { "Name": "Penbrook Police Department", "Description": "http:\/\/navigator.er.usgs.gov\/browse\/node\/1719412" }, "geometry": { "type": "Point", "coordinates": [ -76.8455914, 40.278304100000099, 0.0 ] } },
{ "type": "Feature", "properties": { "Name": "Bloomsburg Police Department", "Description": "http:\/\/navigator.er.usgs.gov\/browse\/node\/1719426" }, "geometry": { "type": "Point", "coordinates": [ -76.453498099999905, 41.0047307, 0.0 ] } },
{ "type": "Feature", "properties": { "Name": "York City Police Dept Community Policing Station", "Description": "http:\/\/navigator.er.usgs.gov\/browse\/node\/1719435" }, "geometry": { "type": "Point", "coordinates": [ -76.73473, 39.95695, 0.0 ] } },
{ "type": "Feature", "properties": { "Name": "Fairview Township Police Dept", "Description": "http:\/\/navigator.er.usgs.gov\/browse\/node\/1719506" }, "geometry": { "type": "Point", "coordinates": [ -76.8749056, 40.2144643, 0.0 ] } },
{ "type": "Feature", "properties": { "Name": "East Brandywine Township Police Department", "Description": "http:\/\/navigator.er.usgs.gov\/browse\/node\/1719610" }, "geometry": { "type": "Point", "coordinates": [ -75.7669478, 40.0343877, 0.0 ] } },
{ "type": "Feature", "properties": { "Name": "Cochranton Police Department", "Description": "http:\/\/navigator.er.usgs.gov\/browse\/node\/1719629" }, "geometry": { "type": "Point", "coordinates": [ -80.0478083, 41.520400800000097, 0.0 ] } },
{ "type": "Feature", "properties": { "Name": "Hummelstown Police Dept", "Description": "http:\/\/navigator.er.usgs.gov\/browse\/node\/1719638" }, "geometry": { "type": "Point", "coordinates": [ -76.7079223, 40.2626056, 0.0 ] } },
{ "type": "Feature", "properties": { "Name": "York County Sheriff", "Description": "http:\/\/navigator.er.usgs.gov\/browse\/node\/1719640" }, "geometry": { "type": "Point", "coordinates": [ -76.7273031, 39.9637259, 0.0 ] } },
{ "type": "Feature", "properties": { "Name": "Philadelphia Police Department-16th District", "Description": "http:\/\/navigator.er.usgs.gov\/browse\/node\/1719643" }, "geometry": { "type": "Point", "coordinates": [ -75.2003218, 39.9617461, 0.0 ] } },
{ "type": "Feature", "properties": { "Name": "Philadelphia Police Department-24th and 25th District", "Description": "http:\/\/navigator.er.usgs.gov\/browse\/node\/1719644" }, "geometry": { "type": "Point", "coordinates": [ -75.1219473, 40.008642300000098, 0.0 ] } },
{ "type": "Feature", "properties": { "Name": "Pennsylvania State Police Troop R Blooming Grove Station ", "Description": "http:\/\/navigator.er.usgs.gov\/browse\/node\/1719650" }, "geometry": { "type": "Point", "coordinates": [ -75.13096, 41.387088300000102, 0.0 ] } },
{ "type": "Feature", "properties": { "Name": "Pennsylvania State Police Troop B Belle Vernon Station", "Description": "http:\/\/navigator.er.usgs.gov\/browse\/node\/1719671" }, "geometry": { "type": "Point", "coordinates": [ -79.8076166, 40.1759881, 0.0 ] } },
{ "type": "Feature", "properties": { "Name": "Philadelphia Police Department-22nd District", "Description": "http:\/\/navigator.er.usgs.gov\/browse\/node\/1719767" }, "geometry": { "type": "Point", "coordinates": [ -75.1621324, 39.980552600000102, 0.0 ] } },
{ "type": "Feature", "properties": { "Name": "Cumberland County Sheriff", "Description": "http:\/\/navigator.er.usgs.gov\/browse\/node\/1719946" }, "geometry": { "type": "Point", "coordinates": [ -77.1887023, 40.2011209, 0.0 ] } },
{ "type": "Feature", "properties": { "Name": "Catawissa Borough Police Department", "Description": "http:\/\/navigator.er.usgs.gov\/browse\/node\/1719986" }, "geometry": { "type": "Point", "coordinates": [ -76.460809799999893, 40.9536419, 0.0 ] } },
{ "type": "Feature", "properties": { "Name": "Paxtang Boro Police Department", "Description": "http:\/\/navigator.er.usgs.gov\/browse\/node\/1720019" }, "geometry": { "type": "Point", "coordinates": [ -76.8329609, 40.258820500000098, 0.0 ] } },
{ "type": "Feature", "properties": { "Name": "Adams County Sheriff", "Description": "http:\/\/navigator.er.usgs.gov\/browse\/node\/1720051" }, "geometry": { "type": "Point", "coordinates": [ -77.231590299999894, 39.829340600000101, 0.0 ] } },
{ "type": "Feature", "properties": { "Name": "Halifax Police Department", "Description": "http:\/\/navigator.er.usgs.gov\/browse\/node\/1720080" }, "geometry": { "type": "Point", "coordinates": [ -76.9319397, 40.4696717, 0.0 ] } },
{ "type": "Feature", "properties": { "Name": "Hampden Township Police Department", "Description": "http:\/\/navigator.er.usgs.gov\/browse\/node\/1720146" }, "geometry": { "type": "Point", "coordinates": [ -76.9724841, 40.2321260000001, 0.0 ] } },
{ "type": "Feature", "properties": { "Name": "Warren Police Department", "Description": "http:\/\/navigator.er.usgs.gov\/browse\/node\/1720153" }, "geometry": { "type": "Point", "coordinates": [ -79.149373, 41.846473300000099, 0.0 ] } },
{ "type": "Feature", "properties": { "Name": "Wellsboro Police Department", "Description": "http:\/\/navigator.er.usgs.gov\/browse\/node\/1720184" }, "geometry": { "type": "Point", "coordinates": [ -77.3001373, 41.747166100000101, 0.0 ] } },
{ "type": "Feature", "properties": { "Name": "York City Police Department", "Description": "http:\/\/navigator.er.usgs.gov\/browse\/node\/1720200" }, "geometry": { "type": "Point", "coordinates": [ -76.7284928, 39.9603716, 0.0 ] } },
{ "type": "Feature", "properties": { "Name": "Middletown Borough Police Department", "Description": "http:\/\/navigator.er.usgs.gov\/browse\/node\/1720208" }, "geometry": { "type": "Point", "coordinates": [ -76.7325337, 40.1951387, 0.0 ] } },
{ "type": "Feature", "properties": { "Name": "Springettsbury Twp Police Department", "Description": "http:\/\/navigator.er.usgs.gov\/browse\/node\/1720221" }, "geometry": { "type": "Point", "coordinates": [ -76.6701722, 39.9910955, 0.0 ] } },
{ "type": "Feature", "properties": { "Name": "Gaines Township Police Department", "Description": "http:\/\/navigator.er.usgs.gov\/browse\/node\/1720258" }, "geometry": { "type": "Point", "coordinates": [ -77.5546656, 41.7523128, 0.0 ] } },
{ "type": "Feature", "properties": { "Name": "East Pennsboro Police Dept", "Description": "http:\/\/navigator.er.usgs.gov\/browse\/node\/1720278" }, "geometry": { "type": "Point", "coordinates": [ -76.932449399999896, 40.2872581, 0.0 ] } },
{ "type": "Feature", "properties": { "Name": "Pennsylvania State Police Troop J Avondale Station", "Description": "http:\/\/navigator.er.usgs.gov\/browse\/node\/1720328" }, "geometry": { "type": "Point", "coordinates": [ -75.797584099999895, 39.838838500000101, 0.0 ] } },
{ "type": "Feature", "properties": { "Name": "Pennsylvania State Police Troop H Lykens Station", "Description": "http:\/\/navigator.er.usgs.gov\/browse\/node\/1720360" }, "geometry": { "type": "Point", "coordinates": [ -76.7941299, 40.558626800000098, 0.0 ] } },
{ "type": "Feature", "properties": { "Name": "Danville Police Department", "Description": "http:\/\/navigator.er.usgs.gov\/browse\/node\/1720375" }, "geometry": { "type": "Point", "coordinates": [ -76.617973699999894, 40.9619894000001, 0.0 ] } },
{ "type": "Feature", "properties": { "Name": "Southern Regional Police Department", "Description": "http:\/\/navigator.er.usgs.gov\/browse\/node\/1720380" }, "geometry": { "type": "Point", "coordinates": [ -76.7009532, 39.734774000000101, 0.0 ] } },
{ "type": "Feature", "properties": { "Name": "Coatesville Police Department", "Description": "http:\/\/navigator.er.usgs.gov\/browse\/node\/1720393" }, "geometry": { "type": "Point", "coordinates": [ -75.8204387, 39.9822091, 0.0 ] } },
{ "type": "Feature", "properties": { "Name": "Lower Windsor Township Police", "Description": "http:\/\/navigator.er.usgs.gov\/browse\/node\/1720424" }, "geometry": { "type": "Point", "coordinates": [ -76.5226537, 39.9420879, 0.0 ] } },
{ "type": "Feature", "properties": { "Name": "Lykens Police Department", "Description": "http:\/\/navigator.er.usgs.gov\/browse\/node\/1720496" }, "geometry": { "type": "Point", "coordinates": [ -76.7015006, 40.5662479000001, 0.0 ] } },
{ "type": "Feature", "properties": { "Name": "Philadelphia Police Department-12th District", "Description": "http:\/\/navigator.er.usgs.gov\/browse\/node\/1720535" }, "geometry": { "type": "Point", "coordinates": [ -75.2339286, 39.9255575, 0.0 ] } },
{ "type": "Feature", "properties": { "Name": "Logan Township Police Department", "Description": "http:\/\/navigator.er.usgs.gov\/browse\/node\/1720538" }, "geometry": { "type": "Point", "coordinates": [ -78.3989736, 40.494106600000102, 0.0 ] } },
{ "type": "Feature", "properties": { "Name": "Birmingham Township Police Department", "Description": "http:\/\/navigator.er.usgs.gov\/browse\/node\/1720566" }, "geometry": { "type": "Point", "coordinates": [ -75.604029, 39.9071089, 0.0 ] } },
{ "type": "Feature", "properties": { "Name": "Philadelphia Police Department-2nd and 15th District", "Description": "http:\/\/navigator.er.usgs.gov\/browse\/node\/1720576" }, "geometry": { "type": "Point", "coordinates": [ -75.064135, 40.0323729, 0.0 ] } },
{ "type": "Feature", "properties": { "Name": "York City Police Dept Community Policing Station", "Description": "http:\/\/navigator.er.usgs.gov\/browse\/node\/1720581" }, "geometry": { "type": "Point", "coordinates": [ -76.73441, 39.970590000000101, 0.0 ] } },
{ "type": "Feature", "properties": { "Name": "Pennsylvania State Police Troop A Indiana Station", "Description": "http:\/\/navigator.er.usgs.gov\/browse\/node\/1720612" }, "geometry": { "type": "Point", "coordinates": [ -79.2037707, 40.589981200000103, 0.0 ] } },
{ "type": "Feature", "properties": { "Name": "Columbia County Sheriff", "Description": "http:\/\/navigator.er.usgs.gov\/browse\/node\/1720639" }, "geometry": { "type": "Point", "coordinates": [ -76.457228799999896, 41.0032674, 0.0 ] } },
{ "type": "Feature", "properties": { "Name": "Washington Township Police Department", "Description": "http:\/\/navigator.er.usgs.gov\/browse\/node\/1720717" }, "geometry": { "type": "Point", "coordinates": [ -79.6037333, 40.5480563, 0.0 ] } },
{ "type": "Feature", "properties": { "Name": "Latimore Township Police Department", "Description": "http:\/\/navigator.er.usgs.gov\/browse\/node\/1720718" }, "geometry": { "type": "Point", "coordinates": [ -77.0972851, 40.014655800000099, 0.0 ] } },
{ "type": "Feature", "properties": { "Name": "McKean County Sheriff Office", "Description": "http:\/\/navigator.er.usgs.gov\/browse\/node\/1720818" }, "geometry": { "type": "Point", "coordinates": [ -78.4469893, 41.8093280000001, 0.0 ] } },
{ "type": "Feature", "properties": { "Name": "Lawrence Park Township Police Department", "Description": "http:\/\/navigator.er.usgs.gov\/browse\/node\/1720887" }, "geometry": { "type": "Point", "coordinates": [ -80.011941099999902, 42.152440500000097, 0.0 ] } },
{ "type": "Feature", "properties": { "Name": "Camp Hill Police Department", "Description": "http:\/\/navigator.er.usgs.gov\/browse\/node\/1720896" }, "geometry": { "type": "Point", "coordinates": [ -76.921945799999904, 40.241213000000101, 0.0 ] } },
{ "type": "Feature", "properties": { "Name": "Philadelphia Police Department-35th District", "Description": "http:\/\/navigator.er.usgs.gov\/browse\/node\/1720952" }, "geometry": { "type": "Point", "coordinates": [ -75.1438822, 40.0442466000001, 0.0 ] } },
{ "type": "Feature", "properties": { "Name": "West Manheim Twp Police", "Description": "http:\/\/navigator.er.usgs.gov\/browse\/node\/1720965" }, "geometry": { "type": "Point", "coordinates": [ -76.947511, 39.7478908000001, 0.0 ] } },
{ "type": "Feature", "properties": { "Name": "New Cumberland Police Department", "Description": "http:\/\/navigator.er.usgs.gov\/browse\/node\/1720972" }, "geometry": { "type": "Point", "coordinates": [ -76.872555599999899, 40.233676000000102, 0.0 ] } },
{ "type": "Feature", "properties": { "Name": "Philadelphia Police Department-1st District", "Description": "http:\/\/navigator.er.usgs.gov\/browse\/node\/1720985" }, "geometry": { "type": "Point", "coordinates": [ -75.186417199999894, 39.923342600000097, 0.0 ] } },
{ "type": "Feature", "properties": { "Name": "West Mead Police Department", "Description": "http:\/\/navigator.er.usgs.gov\/browse\/node\/1721088" }, "geometry": { "type": "Point", "coordinates": [ -80.133392, 41.629028500000103, 0.0 ] } },
{ "type": "Feature", "properties": { "Name": "Lansdowne Police Department", "Description": "http:\/\/navigator.er.usgs.gov\/browse\/node\/1721094" }, "geometry": { "type": "Point", "coordinates": [ -75.271735099999901, 39.938176100000099, 0.0 ] } },
{ "type": "Feature", "properties": { "Name": "Mechanicsburg Borough Police Department", "Description": "http:\/\/navigator.er.usgs.gov\/browse\/node\/1721111" }, "geometry": { "type": "Point", "coordinates": [ -77.0102978, 40.214251400000101, 0.0 ] } },
{ "type": "Feature", "properties": { "Name": "Middlesex Police Department", "Description": "http:\/\/navigator.er.usgs.gov\/browse\/node\/1721141" }, "geometry": { "type": "Point", "coordinates": [ -77.144553099999897, 40.2679694, 0.0 ] } },
{ "type": "Feature", "properties": { "Name": "Curwensville Police Department", "Description": "http:\/\/navigator.er.usgs.gov\/browse\/node\/1721240" }, "geometry": { "type": "Point", "coordinates": [ -78.5208096, 40.9643622, 0.0 ] } },
{ "type": "Feature", "properties": { "Name": "East Pennsboro Twp Police Dept", "Description": "http:\/\/navigator.er.usgs.gov\/browse\/node\/1721259" }, "geometry": { "type": "Point", "coordinates": [ -76.95144, 40.2974600000001, 0.0 ] } },
{ "type": "Feature", "properties": { "Name": "Mount Joy Police Department", "Description": "http:\/\/navigator.er.usgs.gov\/browse\/node\/1721338" }, "geometry": { "type": "Point", "coordinates": [ -76.5022338, 40.109949, 0.0 ] } },
{ "type": "Feature", "properties": { "Name": "Wrightsville Police Dept", "Description": "http:\/\/navigator.er.usgs.gov\/browse\/node\/1721340" }, "geometry": { "type": "Point", "coordinates": [ -76.5293225, 40.0249998, 0.0 ] } },
{ "type": "Feature", "properties": { "Name": "Philadelphia Police Department-9th District", "Description": "http:\/\/navigator.er.usgs.gov\/browse\/node\/1721375" }, "geometry": { "type": "Point", "coordinates": [ -75.1729979, 39.962085300000098, 0.0 ] } },
{ "type": "Feature", "properties": { "Name": "Pennsylvania State Police Troop N Lehighton Station", "Description": "http:\/\/navigator.er.usgs.gov\/browse\/node\/1721418" }, "geometry": { "type": "Point", "coordinates": [ -75.6019077, 40.8551754000001, 0.0 ] } },
{ "type": "Feature", "properties": { "Name": "Tioga County Sheriff's Department", "Description": "http:\/\/navigator.er.usgs.gov\/browse\/node\/1721445" }, "geometry": { "type": "Point", "coordinates": [ -77.3027577, 41.7473958, 0.0 ] } },
{ "type": "Feature", "properties": { "Name": "Philadelphia Police Department-26th District", "Description": "http:\/\/navigator.er.usgs.gov\/browse\/node\/1721450" }, "geometry": { "type": "Point", "coordinates": [ -75.1267486, 39.971757400000101, 0.0 ] } },
{ "type": "Feature", "properties": { "Name": "Pennsylvania State Police Troop L Schuyikill Haven Station", "Description": "http:\/\/navigator.er.usgs.gov\/browse\/node\/1721468" }, "geometry": { "type": "Point", "coordinates": [ -76.2147651, 40.5913723, 0.0 ] } },
{ "type": "Feature", "properties": { "Name": "Clinton County Sheriff's Office", "Description": "http:\/\/navigator.er.usgs.gov\/browse\/node\/1721473" }, "geometry": { "type": "Point", "coordinates": [ -77.4425196, 41.137667700000101, 0.0 ] } },
{ "type": "Feature", "properties": { "Name": "Silver Spring Twsp Police Department", "Description": "http:\/\/navigator.er.usgs.gov\/browse\/node\/1721486" }, "geometry": { "type": "Point", "coordinates": [ -77.0317555, 40.251175, 0.0 ] } },
{ "type": "Feature", "properties": { "Name": "Bellefonte Police Department", "Description": "http:\/\/navigator.er.usgs.gov\/browse\/node\/1721539" }, "geometry": { "type": "Point", "coordinates": [ -77.7815992, 40.9143234000001, 0.0 ] } },
{ "type": "Feature", "properties": { "Name": "Carlisle Police Headquarters", "Description": "http:\/\/navigator.er.usgs.gov\/browse\/node\/1721559" }, "geometry": { "type": "Point", "coordinates": [ -77.1945329, 40.2064101, 0.0 ] } },
{ "type": "Feature", "properties": { "Name": "Pennsylvania State Police Troop P Laporte Station", "Description": "http:\/\/navigator.er.usgs.gov\/browse\/node\/1721590" }, "geometry": { "type": "Point", "coordinates": [ -76.4896054, 41.4267768, 0.0 ] } },
{ "type": "Feature", "properties": { "Name": "West Brandywine Township Police Department", "Description": "http:\/\/navigator.er.usgs.gov\/browse\/node\/1721603" }, "geometry": { "type": "Point", "coordinates": [ -75.8239459, 40.0422589, 0.0 ] } },
{ "type": "Feature", "properties": { "Name": "North Strabane Township Police Department", "Description": "http:\/\/navigator.er.usgs.gov\/browse\/node\/1721627" }, "geometry": { "type": "Point", "coordinates": [ -80.169296099999897, 40.2361314, 0.0 ] } },
{ "type": "Feature", "properties": { "Name": "Pennsylvania State Police Troop T Newville Station", "Description": "http:\/\/navigator.er.usgs.gov\/browse\/node\/1721665" }, "geometry": { "type": "Point", "coordinates": [ -77.3846053, 40.2014938, 0.0 ] } },
{ "type": "Feature", "properties": { "Name": "Harrisburg City Police Bureau-Parking Enforce", "Description": "http:\/\/navigator.er.usgs.gov\/browse\/node\/1721669" }, "geometry": { "type": "Point", "coordinates": [ -76.883102199999897, 40.259714900000098, 0.0 ] } },
{ "type": "Feature", "properties": { "Name": "Wiconisco Township Police Department", "Description": "http:\/\/navigator.er.usgs.gov\/browse\/node\/1721672" }, "geometry": { "type": "Point", "coordinates": [ -76.6924562, 40.5734788, 0.0 ] } },
{ "type": "Feature", "properties": { "Name": "West Manchester Police Department", "Description": "http:\/\/navigator.er.usgs.gov\/browse\/node\/1721723" }, "geometry": { "type": "Point", "coordinates": [ -76.784149, 39.9515259, 0.0 ] } },
{ "type": "Feature", "properties": { "Name": "Hanover Borough Police Department", "Description": "http:\/\/navigator.er.usgs.gov\/browse\/node\/1721843" }, "geometry": { "type": "Point", "coordinates": [ -76.9840597, 39.7996467, 0.0 ] } },
{ "type": "Feature", "properties": { "Name": "Pennsylvania State Police Troop G Rockview Station", "Description": "http:\/\/navigator.er.usgs.gov\/browse\/node\/1721926" }, "geometry": { "type": "Point", "coordinates": [ -77.8103472, 40.935675500000102, 0.0 ] } },
{ "type": "Feature", "properties": { "Name": "Philadelphia Police Department-8th District", "Description": "http:\/\/navigator.er.usgs.gov\/browse\/node\/1721930" }, "geometry": { "type": "Point", "coordinates": [ -74.998287, 40.0798979, 0.0 ] } },
{ "type": "Feature", "properties": { "Name": "West Shore Regional Police Dep", "Description": "http:\/\/navigator.er.usgs.gov\/browse\/node\/1721933" }, "geometry": { "type": "Point", "coordinates": [ -76.893847299999905, 40.2413809, 0.0 ] } },
{ "type": "Feature", "properties": { "Name": "Elkland Police Department", "Description": "http:\/\/navigator.er.usgs.gov\/browse\/node\/1721948" }, "geometry": { "type": "Point", "coordinates": [ -77.313838, 41.987269900000101, 0.0 ] } },
{ "type": "Feature", "properties": { "Name": "Centre County Sheriff", "Description": "http:\/\/navigator.er.usgs.gov\/browse\/node\/1721965" }, "geometry": { "type": "Point", "coordinates": [ -77.7752617, 40.9126257, 0.0 ] } },
{ "type": "Feature", "properties": { "Name": "Mill Hall Police Department", "Description": "http:\/\/navigator.er.usgs.gov\/browse\/node\/1721986" }, "geometry": { "type": "Point", "coordinates": [ -77.4924678, 41.1117980000001, 0.0 ] } },
{ "type": "Feature", "properties": { "Name": "Wesleyville Police Department", "Description": "http:\/\/navigator.er.usgs.gov\/browse\/node\/1722003" }, "geometry": { "type": "Point", "coordinates": [ -80.0126822, 42.1412516, 0.0 ] } },
{ "type": "Feature", "properties": { "Name": "Montour County Sheriff", "Description": "http:\/\/navigator.er.usgs.gov\/browse\/node\/1722052" }, "geometry": { "type": "Point", "coordinates": [ -76.6193497, 40.959876800000103, 0.0 ] } },
{ "type": "Feature", "properties": { "Name": "West Grove Borough Police Department", "Description": "http:\/\/navigator.er.usgs.gov\/browse\/node\/1722070" }, "geometry": { "type": "Point", "coordinates": [ -75.8254024, 39.822487900000098, 0.0 ] } },
{ "type": "Feature", "properties": { "Name": "Pittsburgh Bureau of Police - Zone 1 Station", "Description": "http:\/\/navigator.er.usgs.gov\/browse\/node\/1722088" }, "geometry": { "type": "Point", "coordinates": [ -79.979991299999895, 40.443566700000098, 0.0 ] } },
{ "type": "Feature", "properties": { "Name": "Lower Swatara Twp Police Department", "Description": "http:\/\/navigator.er.usgs.gov\/browse\/node\/1722115" }, "geometry": { "type": "Point", "coordinates": [ -76.765938, 40.2202769, 0.0 ] } },
{ "type": "Feature", "properties": { "Name": "Lower Chichester Township Police Department", "Description": "http:\/\/navigator.er.usgs.gov\/browse\/node\/1722183" }, "geometry": { "type": "Point", "coordinates": [ -75.4212177, 39.8248405000001, 0.0 ] } },
{ "type": "Feature", "properties": { "Name": "York City Police Dept Community Policing Station", "Description": "http:\/\/navigator.er.usgs.gov\/browse\/node\/1722193" }, "geometry": { "type": "Point", "coordinates": [ -76.720529999999897, 39.96189, 0.0 ] } },
{ "type": "Feature", "properties": { "Name": "Berwick Police Department", "Description": "http:\/\/navigator.er.usgs.gov\/browse\/node\/1722194" }, "geometry": { "type": "Point", "coordinates": [ -76.2453477, 41.067255300000099, 0.0 ] } },
{ "type": "Feature", "properties": { "Name": "Philadelphia Police Department-3rd District", "Description": "http:\/\/navigator.er.usgs.gov\/browse\/node\/1722301" }, "geometry": { "type": "Point", "coordinates": [ -75.162674099999904, 39.9333099, 0.0 ] } },
{ "type": "Feature", "properties": { "Name": "Lawrenceville Police Department", "Description": "http:\/\/navigator.er.usgs.gov\/browse\/node\/1722445" }, "geometry": { "type": "Point", "coordinates": [ -77.1253027, 41.9977757, 0.0 ] } },
{ "type": "Feature", "properties": { "Name": "Highspire Police Department", "Description": "http:\/\/navigator.er.usgs.gov\/browse\/node\/1722490" }, "geometry": { "type": "Point", "coordinates": [ -76.7737807, 40.204392600000098, 0.0 ] } },
{ "type": "Feature", "properties": { "Name": "Marcus Hook Police Department", "Description": "http:\/\/navigator.er.usgs.gov\/browse\/node\/1722526" }, "geometry": { "type": "Point", "coordinates": [ -75.418682299999901, 39.8194534, 0.0 ] } },
{ "type": "Feature", "properties": { "Name": "Pennsylvania State Police Troop D Headquarters and Butler Station", "Description": "http:\/\/navigator.er.usgs.gov\/browse\/node\/1722604" }, "geometry": { "type": "Point", "coordinates": [ -79.9154425, 40.8661788000001, 0.0 ] } },
{ "type": "Feature", "properties": { "Name": "Philadelphia Police Department-19th District", "Description": "http:\/\/navigator.er.usgs.gov\/browse\/node\/1722630" }, "geometry": { "type": "Point", "coordinates": [ -75.240558399999898, 39.971005, 0.0 ] } },
{ "type": "Feature", "properties": { "Name": "Shippensburg Police Department", "Description": "http:\/\/navigator.er.usgs.gov\/browse\/node\/1722683" }, "geometry": { "type": "Point", "coordinates": [ -77.5233134, 40.051037300000097, 0.0 ] } },
{ "type": "Feature", "properties": { "Name": "North East Police Department", "Description": "http:\/\/navigator.er.usgs.gov\/browse\/node\/1722695" }, "geometry": { "type": "Point", "coordinates": [ -79.8314639, 42.217269100000102, 0.0 ] } },
{ "type": "Feature", "properties": { "Name": "Steelton Police Department", "Description": "http:\/\/navigator.er.usgs.gov\/browse\/node\/1722723" }, "geometry": { "type": "Point", "coordinates": [ -76.841651199999902, 40.2356498, 0.0 ] } },
{ "type": "Feature", "properties": { "Name": "Altoona Police Department", "Description": "http:\/\/navigator.er.usgs.gov\/browse\/node\/1722813" }, "geometry": { "type": "Point", "coordinates": [ -78.4056527, 40.5134526000001, 0.0 ] } },
{ "type": "Feature", "properties": { "Name": "Littlestown Police Department", "Description": "http:\/\/navigator.er.usgs.gov\/browse\/node\/1722816" }, "geometry": { "type": "Point", "coordinates": [ -77.0877745, 39.7445501, 0.0 ] } },
{ "type": "Feature", "properties": { "Name": "Pennsylvania State Police Troop L Jonestown Station", "Description": "http:\/\/navigator.er.usgs.gov\/browse\/node\/1722883" }, "geometry": { "type": "Point", "coordinates": [ -76.513295, 40.4609154, 0.0 ] } },
{ "type": "Feature", "properties": { "Name": "Mc Sherrystown Police Department", "Description": "http:\/\/navigator.er.usgs.gov\/browse\/node\/1722915" }, "geometry": { "type": "Point", "coordinates": [ -77.0190337, 39.8037371, 0.0 ] } },
{ "type": "Feature", "properties": { "Name": "North Park Police Station", "Description": "http:\/\/navigator.er.usgs.gov\/browse\/node\/1722924" }, "geometry": { "type": "Point", "coordinates": [ -80.0097155, 40.5887325, 0.0 ] } },
{ "type": "Feature", "properties": { "Name": "Westfield Borough Police Department", "Description": "http:\/\/navigator.er.usgs.gov\/browse\/node\/1722961" }, "geometry": { "type": "Point", "coordinates": [ -77.532770599999907, 41.9218799000001, 0.0 ] } },
{ "type": "Feature", "properties": { "Name": "North Middleton Township Police Dept", "Description": "http:\/\/navigator.er.usgs.gov\/browse\/node\/1723050" }, "geometry": { "type": "Point", "coordinates": [ -77.1795989, 40.2371384, 0.0 ] } },
{ "type": "Feature", "properties": { "Name": "Mount Holly Springs Police Department", "Description": "http:\/\/navigator.er.usgs.gov\/browse\/node\/1723081" }, "geometry": { "type": "Point", "coordinates": [ -77.1918726, 40.115963500000099, 0.0 ] } },
{ "type": "Feature", "properties": { "Name": "Gettysburg Boro Police Department", "Description": "http:\/\/navigator.er.usgs.gov\/browse\/node\/1723148" }, "geometry": { "type": "Point", "coordinates": [ -77.229761499999896, 39.8283712, 0.0 ] } },
{ "type": "Feature", "properties": { "Name": "Pennsylvania State Police Troop E Headquarters and Erie Station", "Description": "http:\/\/navigator.er.usgs.gov\/browse\/node\/1723163" }, "geometry": { "type": "Point", "coordinates": [ -80.0109398, 42.1524191, 0.0 ] } },
{ "type": "Feature", "properties": { "Name": "Hellam Township Police", "Description": "http:\/\/navigator.er.usgs.gov\/browse\/node\/1723170" }, "geometry": { "type": "Point", "coordinates": [ -76.582012899999896, 40.013213300000103, 0.0 ] } },
{ "type": "Feature", "properties": { "Name": "Mahoning Township Police Department", "Description": "http:\/\/navigator.er.usgs.gov\/browse\/node\/1723211" }, "geometry": { "type": "Point", "coordinates": [ -76.5981231, 40.965856, 0.0 ] } },
{ "type": "Feature", "properties": { "Name": "Kennett Square Police Department", "Description": "http:\/\/navigator.er.usgs.gov\/browse\/node\/1723251" }, "geometry": { "type": "Point", "coordinates": [ -75.710616199999905, 39.847817500000097, 0.0 ] } },
{ "type": "Feature", "properties": { "Name": "Meadville Police Department", "Description": "http:\/\/navigator.er.usgs.gov\/browse\/node\/1723316" }, "geometry": { "type": "Point", "coordinates": [ -80.1507806, 41.638843300000097, 0.0 ] } },
{ "type": "Feature", "properties": { "Name": "West Goshen Township Police Department", "Description": "http:\/\/navigator.er.usgs.gov\/browse\/node\/1723332" }, "geometry": { "type": "Point", "coordinates": [ -75.5818015, 39.9731655000001, 0.0 ] } },
{ "type": "Feature", "properties": { "Name": "Moon Township Police Dept", "Description": "http:\/\/navigator.er.usgs.gov\/browse\/node\/1723361" }, "geometry": { "type": "Point", "coordinates": [ -80.2078906, 40.504726300000101, 0.0 ] } },
{ "type": "Feature", "properties": { "Name": "Cumberland Township Police Department", "Description": "http:\/\/navigator.er.usgs.gov\/browse\/node\/1723397" }, "geometry": { "type": "Point", "coordinates": [ -77.2616675, 39.823625600000099, 0.0 ] } },
{ "type": "Feature", "properties": { "Name": "York Area Regional Police Department", "Description": "http:\/\/navigator.er.usgs.gov\/browse\/node\/1770053" }, "geometry": { "type": "Point", "coordinates": [ -76.682580099999896, 39.920849400000101, 0.0 ] } },
{ "type": "Feature", "properties": { "Name": "Southwestern  Regional Police Department", "Description": "http:\/\/navigator.er.usgs.gov\/browse\/node\/1770093" }, "geometry": { "type": "Point", "coordinates": [ -76.8983499, 39.8273819, 0.0 ] } },
{ "type": "Feature", "properties": { "Name": "Pennsylvania State Police Troop H York Station", "Description": "http:\/\/navigator.er.usgs.gov\/browse\/node\/1770097" }, "geometry": { "type": "Point", "coordinates": [ -76.700012699999903, 39.8632843, 0.0 ] } },
{ "type": "Feature", "properties": { "Name": "Pennsylvania State Police Troop H Carlisle Station", "Description": "http:\/\/navigator.er.usgs.gov\/browse\/node\/1770098" }, "geometry": { "type": "Point", "coordinates": [ -77.2272278, 40.1845901, 0.0 ] } },
{ "type": "Feature", "properties": { "Name": "Pennsylvania State Police Troop H Chambersburg Station", "Description": "http:\/\/navigator.er.usgs.gov\/browse\/node\/1770099" }, "geometry": { "type": "Point", "coordinates": [ -77.6249564, 39.9354196, 0.0 ] } },
{ "type": "Feature", "properties": { "Name": "Pennsylvania State Police Troop H Headquarters and Harrisburg Station", "Description": "http:\/\/navigator.er.usgs.gov\/browse\/node\/1770100" }, "geometry": { "type": "Point", "coordinates": [ -76.710966799999895, 40.3364076, 0.0 ] } },
{ "type": "Feature", "properties": { "Name": "Pennsylvania State Police Troop H Newport Station", "Description": "http:\/\/navigator.er.usgs.gov\/browse\/node\/1770101" }, "geometry": { "type": "Point", "coordinates": [ -77.117294699999903, 40.4868132, 0.0 ] } },
{ "type": "Feature", "properties": { "Name": "Stewartstown Borough Police Department", "Description": "http:\/\/navigator.er.usgs.gov\/browse\/node\/1770609" }, "geometry": { "type": "Point", "coordinates": [ -76.5918275, 39.754185, 0.0 ] } },
{ "type": "Feature", "properties": { "Name": "North Hopewell Township Police Department", "Description": "http:\/\/navigator.er.usgs.gov\/browse\/node\/1770610" }, "geometry": { "type": "Point", "coordinates": [ -76.6004937, 39.826270200000103, 0.0 ] } },
{ "type": "Feature", "properties": { "Name": "Eastern Adams Regional Police Department", "Description": "http:\/\/navigator.er.usgs.gov\/browse\/node\/1770624" }, "geometry": { "type": "Point", "coordinates": [ -77.053308899999905, 39.866093900000102, 0.0 ] } },
{ "type": "Feature", "properties": { "Name": "Carroll Valley Police Department", "Description": "http:\/\/navigator.er.usgs.gov\/browse\/node\/1770658" }, "geometry": { "type": "Point", "coordinates": [ -77.3814866, 39.7596458, 0.0 ] } },
{ "type": "Feature", "properties": { "Name": "Millcreek Township Police Department", "Description": "http:\/\/navigator.er.usgs.gov\/browse\/node\/1770675" }, "geometry": { "type": "Point", "coordinates": [ -80.155583, 42.0821107, 0.0 ] } },
{ "type": "Feature", "properties": { "Name": "Pennsylvania State Police Troop T Bowmansville Station", "Description": "http:\/\/navigator.er.usgs.gov\/browse\/node\/1876101" }, "geometry": { "type": "Point", "coordinates": [ -76.0407728, 40.2105544, 0.0 ] } },
{ "type": "Feature", "properties": { "Name": "Derry Township Police Department", "Description": "http:\/\/navigator.er.usgs.gov\/browse\/node\/1876108" }, "geometry": { "type": "Point", "coordinates": [ -76.6801291, 40.2840584, 0.0 ] } },
{ "type": "Feature", "properties": { "Name": "Lower Paxton Township Police Department", "Description": "http:\/\/navigator.er.usgs.gov\/browse\/node\/1876109" }, "geometry": { "type": "Point", "coordinates": [ -76.8054955, 40.297766, 0.0 ] } },
{ "type": "Feature", "properties": { "Name": "Millersburg Borough Police Department", "Description": "http:\/\/navigator.er.usgs.gov\/browse\/node\/1876110" }, "geometry": { "type": "Point", "coordinates": [ -76.9620453, 40.5386787, 0.0 ] } },
{ "type": "Feature", "properties": { "Name": "Penn State University Police", "Description": "http:\/\/navigator.er.usgs.gov\/browse\/node\/1876111" }, "geometry": { "type": "Point", "coordinates": [ -76.7395668, 40.1997631, 0.0 ] } },
{ "type": "Feature", "properties": { "Name": "Oxford Borough Police Department", "Description": "http:\/\/navigator.er.usgs.gov\/browse\/node\/1876576" }, "geometry": { "type": "Point", "coordinates": [ -75.9770803, 39.7851082, 0.0 ] } },
{ "type": "Feature", "properties": { "Name": "South Coatesville Police Department", "Description": "http:\/\/navigator.er.usgs.gov\/browse\/node\/1876577" }, "geometry": { "type": "Point", "coordinates": [ -75.8156344, 39.9736321, 0.0 ] } },
{ "type": "Feature", "properties": { "Name": "West Caln Township Police Department", "Description": "http:\/\/navigator.er.usgs.gov\/browse\/node\/1876583" }, "geometry": { "type": "Point", "coordinates": [ -75.8677557, 40.010860400000098, 0.0 ] } },
{ "type": "Feature", "properties": { "Name": "West Fallowfield Township Police Department", "Description": "http:\/\/navigator.er.usgs.gov\/browse\/node\/1876586" }, "geometry": { "type": "Point", "coordinates": [ -75.922403, 39.888560300000101, 0.0 ] } },
{ "type": "Feature", "properties": { "Name": "New Garden Township Police Department", "Description": "http:\/\/navigator.er.usgs.gov\/browse\/node\/1876587" }, "geometry": { "type": "Point", "coordinates": [ -75.754067899999896, 39.809936800000102, 0.0 ] } },
{ "type": "Feature", "properties": { "Name": "East Marlborough Township Police Department", "Description": "http:\/\/navigator.er.usgs.gov\/browse\/node\/1876588" }, "geometry": { "type": "Point", "coordinates": [ -75.719242199999897, 39.8775447, 0.0 ] } },
{ "type": "Feature", "properties": { "Name": "Kennett Township Police Department", "Description": "http:\/\/navigator.er.usgs.gov\/browse\/node\/1876589" }, "geometry": { "type": "Point", "coordinates": [ -75.6620544, 39.8487537, 0.0 ] } },
{ "type": "Feature", "properties": { "Name": "Westtown-East Goshen Regional Police Department", "Description": "http:\/\/navigator.er.usgs.gov\/browse\/node\/1876590" }, "geometry": { "type": "Point", "coordinates": [ -75.586239, 39.932967900000101, 0.0 ] } },
{ "type": "Feature", "properties": { "Name": "West Nottingham Township Police Department", "Description": "http:\/\/navigator.er.usgs.gov\/browse\/node\/1876591" }, "geometry": { "type": "Point", "coordinates": [ -76.034029599999897, 39.7417041, 0.0 ] } },
{ "type": "Feature", "properties": { "Name": "West Chester University Police Department", "Description": "http:\/\/navigator.er.usgs.gov\/browse\/node\/1876592" }, "geometry": { "type": "Point", "coordinates": [ -75.6005539, 39.952856100000098, 0.0 ] } },
{ "type": "Feature", "properties": { "Name": "Pennsylvania State Police Troop J Embreeville Station", "Description": "http:\/\/navigator.er.usgs.gov\/browse\/node\/1876593" }, "geometry": { "type": "Point", "coordinates": [ -75.732198299999894, 39.948034500000098, 0.0 ] } },
{ "type": "Feature", "properties": { "Name": "Pennsylvania State Police Troop J  Headquarters and Lancaster Station", "Description": "http:\/\/navigator.er.usgs.gov\/browse\/node\/1876594" }, "geometry": { "type": "Point", "coordinates": [ -76.235221, 40.0314112, 0.0 ] } },
{ "type": "Feature", "properties": { "Name": "Philadelphia Police Department-39th District", "Description": "http:\/\/navigator.er.usgs.gov\/browse\/node\/1876766" }, "geometry": { "type": "Point", "coordinates": [ -75.164463199999901, 40.0112576000001, 0.0 ] } },
{ "type": "Feature", "properties": { "Name": "Pennsylvania State Police Troop A Headquarters and Greensburg Station", "Description": "http:\/\/navigator.er.usgs.gov\/browse\/node\/2028842" }, "geometry": { "type": "Point", "coordinates": [ -79.529978399999905, 40.306624600000099, 0.0 ] } },
{ "type": "Feature", "properties": { "Name": "Pennsylvania State Police Troop B Headquarters and Washington Station", "Description": "http:\/\/navigator.er.usgs.gov\/browse\/node\/2028843" }, "geometry": { "type": "Point", "coordinates": [ -80.2381379, 40.180340300000097, 0.0 ] } },
{ "type": "Feature", "properties": { "Name": "Pennsylvania State Police Troop C Headquarters and Punxsutawney Station", "Description": "http:\/\/navigator.er.usgs.gov\/browse\/node\/2028844" }, "geometry": { "type": "Point", "coordinates": [ -78.980016099999901, 40.9493652, 0.0 ] } },
{ "type": "Feature", "properties": { "Name": "Pennsylvania State Police Troop F Headquarters and Montoursville Station", "Description": "http:\/\/navigator.er.usgs.gov\/browse\/node\/2028845" }, "geometry": { "type": "Point", "coordinates": [ -76.913497499999906, 41.2495636, 0.0 ] } },
{ "type": "Feature", "properties": { "Name": "Pennsylvania State Police Troop G Holidaysburg Station and Troop Headquarters", "Description": "http:\/\/navigator.er.usgs.gov\/browse\/node\/2028846" }, "geometry": { "type": "Point", "coordinates": [ -78.4055996, 40.436062300000103, 0.0 ] } },
{ "type": "Feature", "properties": { "Name": "Pennsylvania State Police Troop A Ebensburg Station", "Description": "http:\/\/navigator.er.usgs.gov\/browse\/node\/2028847" }, "geometry": { "type": "Point", "coordinates": [ -78.7554455, 40.460996700000102, 0.0 ] } },
{ "type": "Feature", "properties": { "Name": "Pennsylvania State Police Troop A Kiski Valley Station", "Description": "http:\/\/navigator.er.usgs.gov\/browse\/node\/2028848" }, "geometry": { "type": "Point", "coordinates": [ -79.5884339, 40.548053900000099, 0.0 ] } },
{ "type": "Feature", "properties": { "Name": "Pennsylvania State Poice Troop A Somerset Station", "Description": "http:\/\/navigator.er.usgs.gov\/browse\/node\/2028849" }, "geometry": { "type": "Point", "coordinates": [ -79.081566699999897, 40.031263700000103, 0.0 ] } },
{ "type": "Feature", "properties": { "Name": "Newville Police Department", "Description": "http:\/\/navigator.er.usgs.gov\/browse\/node\/2036790" }, "geometry": { "type": "Point", "coordinates": [ -77.3997342, 40.171806000000103, 0.0 ] } },
{ "type": "Feature", "properties": { "Name": "Pennsylvania State Police Troop F Coudersport Station", "Description": "http:\/\/navigator.er.usgs.gov\/browse\/node\/2037307" }, "geometry": { "type": "Point", "coordinates": [ -77.8746346, 41.767278700000098, 0.0 ] } },
{ "type": "Feature", "properties": { "Name": "Conneaut Lake Regional Police Dept", "Description": "http:\/\/navigator.er.usgs.gov\/browse\/node\/2063340" }, "geometry": { "type": "Point", "coordinates": [ -80.3327477, 41.6050494, 0.0 ] } },
{ "type": "Feature", "properties": { "Name": "Mansfield Borough Police", "Description": "http:\/\/navigator.er.usgs.gov\/browse\/node\/2086167" }, "geometry": { "type": "Point", "coordinates": [ -77.0781281, 41.8065734, 0.0 ] } },
{ "type": "Feature", "properties": { "Name": "Mansfield University Police Station", "Description": "http:\/\/navigator.er.usgs.gov\/browse\/node\/2086169" }, "geometry": { "type": "Point", "coordinates": [ -77.072181999999898, 41.8040916, 0.0 ] } },
{ "type": "Feature", "properties": { "Name": "Pittsburgh Bureau of Police - Headquarters", "Description": "http:\/\/navigator.er.usgs.gov\/browse\/node\/2087290" }, "geometry": { "type": "Point", "coordinates": [ -80.021335, 40.4506335, 0.0 ] } },
{ "type": "Feature", "properties": { "Name": "Osceola Township Police", "Description": "http:\/\/navigator.er.usgs.gov\/browse\/node\/2087724" }, "geometry": { "type": "Point", "coordinates": [ -77.3421124, 41.9813726, 0.0 ] } },
{ "type": "Feature", "properties": { "Name": "Tioga Police Department", "Description": "http:\/\/navigator.er.usgs.gov\/browse\/node\/2087775" }, "geometry": { "type": "Point", "coordinates": [ -77.1326915, 41.909467, 0.0 ] } },
{ "type": "Feature", "properties": { "Name": "Lawrence Township Police Department", "Description": "http:\/\/navigator.er.usgs.gov\/browse\/node\/2087785" }, "geometry": { "type": "Point", "coordinates": [ -77.118127899999905, 41.9822437, 0.0 ] } },
{ "type": "Feature", "properties": { "Name": "Liberty Township Police Department", "Description": "http:\/\/navigator.er.usgs.gov\/browse\/node\/2088678" }, "geometry": { "type": "Point", "coordinates": [ -77.3596605, 39.733764700000101, 0.0 ] } },
{ "type": "Feature", "properties": { "Name": "Hamiltonban Township Police Department", "Description": "http:\/\/navigator.er.usgs.gov\/browse\/node\/2088682" }, "geometry": { "type": "Point", "coordinates": [ -77.364300699999902, 39.794253, 0.0 ] } },
{ "type": "Feature", "properties": { "Name": "Bonneauville Police Department", "Description": "http:\/\/navigator.er.usgs.gov\/browse\/node\/2088684" }, "geometry": { "type": "Point", "coordinates": [ -77.1312999, 39.810552600000101, 0.0 ] } },
{ "type": "Feature", "properties": { "Name": "Philadelphia Police Department-18th District", "Description": "http:\/\/navigator.er.usgs.gov\/browse\/node\/2090282" }, "geometry": { "type": "Point", "coordinates": [ -75.2328442, 39.954157700000103, 0.0 ] } },
{ "type": "Feature", "properties": { "Name": "Pennsylvania State Police Troop G Bedford Station", "Description": "http:\/\/navigator.er.usgs.gov\/browse\/node\/2090326" }, "geometry": { "type": "Point", "coordinates": [ -78.5220467, 40.078139900000103, 0.0 ] } },
{ "type": "Feature", "properties": { "Name": "Pennsylvania State Police Troop G Phillipsburg Station", "Description": "http:\/\/navigator.er.usgs.gov\/browse\/node\/2090327" }, "geometry": { "type": "Point", "coordinates": [ -78.177744899999894, 40.878725900000099, 0.0 ] } },
{ "type": "Feature", "properties": { "Name": "Pennsylvania State Police Troop G McConnellsburg Station", "Description": "http:\/\/navigator.er.usgs.gov\/browse\/node\/2090328" }, "geometry": { "type": "Point", "coordinates": [ -77.9949738, 39.923413300000099, 0.0 ] } },
{ "type": "Feature", "properties": { "Name": "Pennsylvania State Police Troop G Huntingdon Station", "Description": "http:\/\/navigator.er.usgs.gov\/browse\/node\/2090329" }, "geometry": { "type": "Point", "coordinates": [ -78.057329799999906, 40.474896000000101, 0.0 ] } },
{ "type": "Feature", "properties": { "Name": "Pennsylvania State Police Troop G Lewistown Station", "Description": "http:\/\/navigator.er.usgs.gov\/browse\/node\/2090330" }, "geometry": { "type": "Point", "coordinates": [ -77.412044, 40.5985952, 0.0 ] } },
{ "type": "Feature", "properties": { "Name": "Pennsylvania State Police Troop B Pittsburgh Station", "Description": "http:\/\/navigator.er.usgs.gov\/browse\/node\/2090369" }, "geometry": { "type": "Point", "coordinates": [ -80.1948975, 40.480012900000098, 0.0 ] } },
{ "type": "Feature", "properties": { "Name": "Pennsylvania State Police Troop B Uniontown Station", "Description": "http:\/\/navigator.er.usgs.gov\/browse\/node\/2090373" }, "geometry": { "type": "Point", "coordinates": [ -79.663836199999906, 39.9373644, 0.0 ] } },
{ "type": "Feature", "properties": { "Name": "Pennsylvania State Police Troop B Waynesburg Station", "Description": "http:\/\/navigator.er.usgs.gov\/browse\/node\/2090374" }, "geometry": { "type": "Point", "coordinates": [ -80.146422, 39.8961609, 0.0 ] } },
{ "type": "Feature", "properties": { "Name": "Pennsylvania State Police Troop C Clarion Station", "Description": "http:\/\/navigator.er.usgs.gov\/browse\/node\/2090375" }, "geometry": { "type": "Point", "coordinates": [ -79.396479, 41.1833422, 0.0 ] } },
{ "type": "Feature", "properties": { "Name": "Pennsylvania State Police Troop C Clearfield Station", "Description": "http:\/\/navigator.er.usgs.gov\/browse\/node\/2090376" }, "geometry": { "type": "Point", "coordinates": [ -78.3457183, 41.0095773, 0.0 ] } },
{ "type": "Feature", "properties": { "Name": "Pennsylvania State Police Troop C Ridgway Station", "Description": "http:\/\/navigator.er.usgs.gov\/browse\/node\/2090377" }, "geometry": { "type": "Point", "coordinates": [ -78.6858626, 41.380830500000101, 0.0 ] } },
{ "type": "Feature", "properties": { "Name": "Pennsylvania State Police Troop C Marienville Station", "Description": "http:\/\/navigator.er.usgs.gov\/browse\/node\/2090378" }, "geometry": { "type": "Point", "coordinates": [ -79.151139999999899, 41.395947, 0.0 ] } },
{ "type": "Feature", "properties": { "Name": "Pennsylvania State Police Troop C DuBois Station", "Description": "http:\/\/navigator.er.usgs.gov\/browse\/node\/2090379" }, "geometry": { "type": "Point", "coordinates": [ -78.8124065, 41.148240600000101, 0.0 ] } },
{ "type": "Feature", "properties": { "Name": "Pennsylvania State Police Troop C Kane Station", "Description": "http:\/\/navigator.er.usgs.gov\/browse\/node\/2090380" }, "geometry": { "type": "Point", "coordinates": [ -78.694311599999907, 41.7145715, 0.0 ] } },
{ "type": "Feature", "properties": { "Name": "Pennsylvania State Police Troop D Kittanning Station", "Description": "http:\/\/navigator.er.usgs.gov\/browse\/node\/2090387" }, "geometry": { "type": "Point", "coordinates": [ -79.558395899999894, 40.820395, 0.0 ] } },
{ "type": "Feature", "properties": { "Name": "Pennsylvania State Police Troop D Beaver Station", "Description": "http:\/\/navigator.er.usgs.gov\/browse\/node\/2090388" }, "geometry": { "type": "Point", "coordinates": [ -80.366856599999906, 40.711464, 0.0 ] } },
{ "type": "Feature", "properties": { "Name": "Pennsylvania State Police Troop D New Castle Station", "Description": "http:\/\/navigator.er.usgs.gov\/browse\/node\/2090390" }, "geometry": { "type": "Point", "coordinates": [ -80.3610631, 41.066827400000101, 0.0 ] } },
{ "type": "Feature", "properties": { "Name": "Pennsylvania State Police Troop D Mercer Station", "Description": "http:\/\/navigator.er.usgs.gov\/browse\/node\/2090391" }, "geometry": { "type": "Point", "coordinates": [ -80.1733406, 41.263619, 0.0 ] } },
{ "type": "Feature", "properties": { "Name": "Pennsylvania State Police Troop E Meadville Station", "Description": "http:\/\/navigator.er.usgs.gov\/browse\/node\/2090402" }, "geometry": { "type": "Point", "coordinates": [ -80.206568199999893, 41.6196133, 0.0 ] } },
{ "type": "Feature", "properties": { "Name": "Pennsylvania State Police Troop E Corry Station", "Description": "http:\/\/navigator.er.usgs.gov\/browse\/node\/2090403" }, "geometry": { "type": "Point", "coordinates": [ -79.758569, 41.9196189, 0.0 ] } },
{ "type": "Feature", "properties": { "Name": "Pennsylvania State Police Troop E Girard Station", "Description": "http:\/\/navigator.er.usgs.gov\/browse\/node\/2090405" }, "geometry": { "type": "Point", "coordinates": [ -80.3366736, 41.9836216, 0.0 ] } },
{ "type": "Feature", "properties": { "Name": "Pennsylvania State Police Troop E Franklin Station", "Description": "http:\/\/navigator.er.usgs.gov\/browse\/node\/2090406" }, "geometry": { "type": "Point", "coordinates": [ -79.7286812, 41.353620600000099, 0.0 ] } },
{ "type": "Feature", "properties": { "Name": "Pennsylvania State Police Troop E Warren Station", "Description": "http:\/\/navigator.er.usgs.gov\/browse\/node\/2090407" }, "geometry": { "type": "Point", "coordinates": [ -79.225649, 41.845038800000097, 0.0 ] } },
{ "type": "Feature", "properties": { "Name": "Pennsylvania State Police Troop F Emporium Station", "Description": "http:\/\/navigator.er.usgs.gov\/browse\/node\/2090419" }, "geometry": { "type": "Point", "coordinates": [ -78.2637874, 41.5014968, 0.0 ] } },
{ "type": "Feature", "properties": { "Name": "Pennsylvania State Police Troop F Lamar Station", "Description": "http:\/\/navigator.er.usgs.gov\/browse\/node\/2090420" }, "geometry": { "type": "Point", "coordinates": [ -77.491348699999904, 41.0651422, 0.0 ] } },
{ "type": "Feature", "properties": { "Name": "Pennsylvania State Police Troop F Milton Station", "Description": "http:\/\/navigator.er.usgs.gov\/browse\/node\/2090421" }, "geometry": { "type": "Point", "coordinates": [ -76.849708, 40.9690053, 0.0 ] } },
{ "type": "Feature", "properties": { "Name": "Pennsylvania State Police Troop F Stonington Station", "Description": "http:\/\/navigator.er.usgs.gov\/browse\/node\/2090427" }, "geometry": { "type": "Point", "coordinates": [ -76.6928551, 40.859985800000103, 0.0 ] } },
{ "type": "Feature", "properties": { "Name": "Pennsylvania State Police Troop K Media Station", "Description": "http:\/\/navigator.er.usgs.gov\/browse\/node\/2090463" }, "geometry": { "type": "Point", "coordinates": [ -75.4493224, 39.9078348, 0.0 ] } },
{ "type": "Feature", "properties": { "Name": "Pennsylvania State Police Troop K Skippack Station", "Description": "http:\/\/navigator.er.usgs.gov\/browse\/node\/2090464" }, "geometry": { "type": "Point", "coordinates": [ -75.4035935, 40.231896200000101, 0.0 ] } },
{ "type": "Feature", "properties": { "Name": "Pennsylvania State Police Troop K Headquarters and Philidelphia Station", "Description": "http:\/\/navigator.er.usgs.gov\/browse\/node\/2090465" }, "geometry": { "type": "Point", "coordinates": [ -75.2180195, 39.996470400000099, 0.0 ] } },
{ "type": "Feature", "properties": { "Name": "Pennsylvania State Police Troop L Hamburg Station", "Description": "http:\/\/navigator.er.usgs.gov\/browse\/node\/2090468" }, "geometry": { "type": "Point", "coordinates": [ -76.002469, 40.564150900000101, 0.0 ] } },
{ "type": "Feature", "properties": { "Name": "Pennsylvania State Police Troop L Headquarters and Reading Station", "Description": "http:\/\/navigator.er.usgs.gov\/browse\/node\/2090469" }, "geometry": { "type": "Point", "coordinates": [ -75.9524995, 40.3191251000001, 0.0 ] } },
{ "type": "Feature", "properties": { "Name": "Pennsylvania State Police Troop L Frackville Station", "Description": "http:\/\/navigator.er.usgs.gov\/browse\/node\/2090470" }, "geometry": { "type": "Point", "coordinates": [ -76.1984634, 40.7860002, 0.0 ] } },
{ "type": "Feature", "properties": { "Name": "Pennsylvania State Police Troop M Dublin Station", "Description": "http:\/\/navigator.er.usgs.gov\/browse\/node\/2090471" }, "geometry": { "type": "Point", "coordinates": [ -75.2120864, 40.3740943, 0.0 ] } },
{ "type": "Feature", "properties": { "Name": "Pennsylvania State Police Troop M Trevose Station", "Description": "http:\/\/navigator.er.usgs.gov\/browse\/node\/2090472" }, "geometry": { "type": "Point", "coordinates": [ -74.960806299999902, 40.1331664000001, 0.0 ] } },
{ "type": "Feature", "properties": { "Name": "Pennsylvania State Police Troop M Headquarters and Bethlehem Station", "Description": "http:\/\/navigator.er.usgs.gov\/browse\/node\/2090473" }, "geometry": { "type": "Point", "coordinates": [ -75.4293132, 40.647791600000097, 0.0 ] } },
{ "type": "Feature", "properties": { "Name": "Pennsylvania State Police Troop M Belfast Station", "Description": "http:\/\/navigator.er.usgs.gov\/browse\/node\/2090474" }, "geometry": { "type": "Point", "coordinates": [ -75.2689492, 40.7737734, 0.0 ] } },
{ "type": "Feature", "properties": { "Name": "Pennsylvania State Police Troop N Bloomsburg Station", "Description": "http:\/\/navigator.er.usgs.gov\/browse\/node\/2090532" }, "geometry": { "type": "Point", "coordinates": [ -76.358779, 41.039771200000096, 0.0 ] } },
{ "type": "Feature", "properties": { "Name": "Pennsylvania State Police Troop N Headquarters and Hazleton Station", "Description": "http:\/\/navigator.er.usgs.gov\/browse\/node\/2090534" }, "geometry": { "type": "Point", "coordinates": [ -76.0256701, 40.9776378, 0.0 ] } },
{ "type": "Feature", "properties": { "Name": "Pennsylvania State Police Troop N Fern Ridge Station", "Description": "http:\/\/navigator.er.usgs.gov\/browse\/node\/2090537" }, "geometry": { "type": "Point", "coordinates": [ -75.581287099999898, 41.0807256000001, 0.0 ] } },
{ "type": "Feature", "properties": { "Name": "Pennsylvania State Police Troop N Swiftwater Station", "Description": "http:\/\/navigator.er.usgs.gov\/browse\/node\/2090540" }, "geometry": { "type": "Point", "coordinates": [ -75.3256994, 41.076067200000097, 0.0 ] } },
{ "type": "Feature", "properties": { "Name": "Pennsylvania State Police Troop P Towanda Station", "Description": "http:\/\/navigator.er.usgs.gov\/browse\/node\/2090542" }, "geometry": { "type": "Point", "coordinates": [ -76.4853739, 41.796191700000101, 0.0 ] } },
{ "type": "Feature", "properties": { "Name": "Pennsylvania State Police Troop P Shickshinny Station", "Description": "http:\/\/navigator.er.usgs.gov\/browse\/node\/2090543" }, "geometry": { "type": "Point", "coordinates": [ -76.137195, 41.084925600000098, 0.0 ] } },
{ "type": "Feature", "properties": { "Name": "Pennsylvania State Police Troop P Headquarters and Wyoming Station", "Description": "http:\/\/navigator.er.usgs.gov\/browse\/node\/2090544" }, "geometry": { "type": "Point", "coordinates": [ -75.8412079, 41.3098673000001, 0.0 ] } },
{ "type": "Feature", "properties": { "Name": "Erie Police Department", "Description": "http:\/\/navigator.er.usgs.gov\/browse\/node\/2090548" }, "geometry": { "type": "Point", "coordinates": [ -80.085302, 42.128470800000102, 0.0 ] } },
{ "type": "Feature", "properties": { "Name": "Pennsylvania State Police Troop R Headquarters and Dunmore Station", "Description": "http:\/\/navigator.er.usgs.gov\/browse\/node\/2090549" }, "geometry": { "type": "Point", "coordinates": [ -75.6151299, 41.435860100000099, 0.0 ] } },
{ "type": "Feature", "properties": { "Name": "Pennsylvania State Police Troop R Gibson Station", "Description": "http:\/\/navigator.er.usgs.gov\/browse\/node\/2090550" }, "geometry": { "type": "Point", "coordinates": [ -75.6880967, 41.8305071, 0.0 ] } },
{ "type": "Feature", "properties": { "Name": "Pennsylvania State Police Troop R Honesdale Station", "Description": "http:\/\/navigator.er.usgs.gov\/browse\/node\/2090551" }, "geometry": { "type": "Point", "coordinates": [ -75.2794514, 41.510660600000101, 0.0 ] } },
{ "type": "Feature", "properties": { "Name": "Pennsylvania State Police Troop T Everett Station", "Description": "http:\/\/navigator.er.usgs.gov\/browse\/node\/2090553" }, "geometry": { "type": "Point", "coordinates": [ -78.386311099999901, 40.006349500000098, 0.0 ] } },
{ "type": "Feature", "properties": { "Name": "Pennsylvania State Police Troop T King of Prussia Station", "Description": "http:\/\/navigator.er.usgs.gov\/browse\/node\/2090557" }, "geometry": { "type": "Point", "coordinates": [ -75.342553, 40.095754600000099, 0.0 ] } },
{ "type": "Feature", "properties": { "Name": "Pennsylvania State Police Troop T Somerset Station", "Description": "http:\/\/navigator.er.usgs.gov\/browse\/node\/2090558" }, "geometry": { "type": "Point", "coordinates": [ -79.0196148, 39.992819800000099, 0.0 ] } },
{ "type": "Feature", "properties": { "Name": "Pensylvania State Police Troop T New Stanton Station", "Description": "http:\/\/navigator.er.usgs.gov\/browse\/node\/2090559" }, "geometry": { "type": "Point", "coordinates": [ -79.597180299999906, 40.233389800000097, 0.0 ] } },
{ "type": "Feature", "properties": { "Name": "Pennsylvania State Police Troop T Headquarters and Highspire Station", "Description": "http:\/\/navigator.er.usgs.gov\/browse\/node\/2090560" }, "geometry": { "type": "Point", "coordinates": [ -76.7882852, 40.2156507, 0.0 ] } },
{ "type": "Feature", "properties": { "Name": "Pennsylvania State Police Troop T Pocono Station", "Description": "http:\/\/navigator.er.usgs.gov\/browse\/node\/2090561" }, "geometry": { "type": "Point", "coordinates": [ -75.705380799999901, 41.072665, 0.0 ] } },
{ "type": "Feature", "properties": { "Name": "Bedford County Sheriff", "Description": "http:\/\/navigator.er.usgs.gov\/browse\/node\/2090617" }, "geometry": { "type": "Point", "coordinates": [ -78.504384, 40.0170223000001, 0.0 ] } },
{ "type": "Feature", "properties": { "Name": "Bedford Police Department", "Description": "http:\/\/navigator.er.usgs.gov\/browse\/node\/2090622" }, "geometry": { "type": "Point", "coordinates": [ -78.5067604, 40.0175482000001, 0.0 ] } }
]
}
