{
"type": "FeatureCollection",
"crs": { "type": "name", "properties": { "name": "urn:ogc:def:crs:OGC:1.3:CRS84" } },
                                                                                
"features": [
{ "type": "Feature", "properties": { "Name": "Whitehall Township Police", "Description": "http:\/\/navigator.er.usgs.gov\/browse\/node\/1717188" }, "geometry": { "type": "Point", "coordinates": [ -75.49819, 40.65448, 0.0 ] } },
{ "type": "Feature", "properties": { "Name": "Forest Hills Police Dept", "Description": "http:\/\/navigator.er.usgs.gov\/browse\/node\/1717195" }, "geometry": { "type": "Point", "coordinates": [ -79.85042, 40.41988, 0.0 ] } },
{ "type": "Feature", "properties": { "Name": "Monroe County Sheriff", "Description": "http:\/\/navigator.er.usgs.gov\/browse\/node\/1717213" }, "geometry": { "type": "Point", "coordinates": [ -75.19478, 40.986690000000102, 0.0 ] } },
{ "type": "Feature", "properties": { "Name": "Bethlehem Police Dept", "Description": "http:\/\/navigator.er.usgs.gov\/browse\/node\/1717263" }, "geometry": { "type": "Point", "coordinates": [ -75.38625, 40.607950000000102, 0.0 ] } },
{ "type": "Feature", "properties": { "Name": "Clarks Summit Police Dept", "Description": "http:\/\/navigator.er.usgs.gov\/browse\/node\/1717300" }, "geometry": { "type": "Point", "coordinates": [ -75.70299, 41.494210000000102, 0.0 ] } },
{ "type": "Feature", "properties": { "Name": "Osceola Mills Borough Police", "Description": "http:\/\/navigator.er.usgs.gov\/browse\/node\/1717312" }, "geometry": { "type": "Point", "coordinates": [ -78.267989999999898, 40.85835, 0.0 ] } },
{ "type": "Feature", "properties": { "Name": "Roseto Chief Of Police", "Description": "http:\/\/navigator.er.usgs.gov\/browse\/node\/1717337" }, "geometry": { "type": "Point", "coordinates": [ -75.17925, 40.868110000000101, 0.0 ] } },
{ "type": "Feature", "properties": { "Name": "Centre Twp Police Dept", "Description": "http:\/\/navigator.er.usgs.gov\/browse\/node\/1717340" }, "geometry": { "type": "Point", "coordinates": [ -76.03764, 40.48493, 0.0 ] } },
{ "type": "Feature", "properties": { "Name": "Carbondale Police Dept", "Description": "http:\/\/navigator.er.usgs.gov\/browse\/node\/1717369" }, "geometry": { "type": "Point", "coordinates": [ -75.50274, 41.57217, 0.0 ] } },
{ "type": "Feature", "properties": { "Name": "Shamokin City Police", "Description": "http:\/\/navigator.er.usgs.gov\/browse\/node\/1717374" }, "geometry": { "type": "Point", "coordinates": [ -76.56041, 40.7895, 0.0 ] } },
{ "type": "Feature", "properties": { "Name": "Deer Lakes Park Police Station", "Description": "http:\/\/navigator.er.usgs.gov\/browse\/node\/1717376" }, "geometry": { "type": "Point", "coordinates": [ -79.83472, 40.6166, 0.0 ] } },
{ "type": "Feature", "properties": { "Name": "Haverford Twp Police Dept", "Description": "http:\/\/navigator.er.usgs.gov\/browse\/node\/1717383" }, "geometry": { "type": "Point", "coordinates": [ -75.30332, 39.97651, 0.0 ] } },
{ "type": "Feature", "properties": { "Name": "Butler Police Dept", "Description": "http:\/\/navigator.er.usgs.gov\/browse\/node\/1717395" }, "geometry": { "type": "Point", "coordinates": [ -79.89701, 40.861730000000101, 0.0 ] } },
{ "type": "Feature", "properties": { "Name": "Jefferson Police Dept", "Description": "http:\/\/navigator.er.usgs.gov\/browse\/node\/1717411" }, "geometry": { "type": "Point", "coordinates": [ -79.93165, 40.29604, 0.0 ] } },
{ "type": "Feature", "properties": { "Name": "Yardley Boro Police Dept", "Description": "http:\/\/navigator.er.usgs.gov\/browse\/node\/1717414" }, "geometry": { "type": "Point", "coordinates": [ -74.83722, 40.24124, 0.0 ] } },
{ "type": "Feature", "properties": { "Name": "Huntingdon County Sheriffs Ofc", "Description": "http:\/\/navigator.er.usgs.gov\/browse\/node\/1717421" }, "geometry": { "type": "Point", "coordinates": [ -78.00709, 40.48477, 0.0 ] } },
{ "type": "Feature", "properties": { "Name": "New Castle Police Dept", "Description": "http:\/\/navigator.er.usgs.gov\/browse\/node\/1717441" }, "geometry": { "type": "Point", "coordinates": [ -80.347219999999894, 41.00255, 0.0 ] } },
{ "type": "Feature", "properties": { "Name": "Penn Twp Police Dept", "Description": "http:\/\/navigator.er.usgs.gov\/browse\/node\/1717463" }, "geometry": { "type": "Point", "coordinates": [ -77.03503, 40.3896, 0.0 ] } },
{ "type": "Feature", "properties": { "Name": "West Newton Chief Of Police", "Description": "http:\/\/navigator.er.usgs.gov\/browse\/node\/1717484" }, "geometry": { "type": "Point", "coordinates": [ -79.76834, 40.210210000000103, 0.0 ] } },
{ "type": "Feature", "properties": { "Name": "Wayne Twp Police Dept", "Description": "http:\/\/navigator.er.usgs.gov\/browse\/node\/1717486" }, "geometry": { "type": "Point", "coordinates": [ -80.18541, 39.89651, 0.0 ] } },
{ "type": "Feature", "properties": { "Name": "Riverside Boro Police", "Description": "http:\/\/navigator.er.usgs.gov\/browse\/node\/1717495" }, "geometry": { "type": "Point", "coordinates": [ -76.64957, 40.94352, 0.0 ] } },
{ "type": "Feature", "properties": { "Name": "Nanticoke Police Dept", "Description": "http:\/\/navigator.er.usgs.gov\/browse\/node\/1717497" }, "geometry": { "type": "Point", "coordinates": [ -76.00119, 41.1993000000001, 0.0 ] } },
{ "type": "Feature", "properties": { "Name": "Upper Dublin Police Dept", "Description": "http:\/\/navigator.er.usgs.gov\/browse\/node\/1717500" }, "geometry": { "type": "Point", "coordinates": [ -75.20143, 40.1532300000001, 0.0 ] } },
{ "type": "Feature", "properties": { "Name": "Bellwood Police Dept", "Description": "http:\/\/navigator.er.usgs.gov\/browse\/node\/1717501" }, "geometry": { "type": "Point", "coordinates": [ -78.33234, 40.60117, 0.0 ] } },
{ "type": "Feature", "properties": { "Name": "Tinicum Township Police", "Description": "http:\/\/navigator.er.usgs.gov\/browse\/node\/1717525" }, "geometry": { "type": "Point", "coordinates": [ -75.27993, 39.872810000000101, 0.0 ] } },
{ "type": "Feature", "properties": { "Name": "Lewisburg Police Adm", "Description": "http:\/\/navigator.er.usgs.gov\/browse\/node\/1717553" }, "geometry": { "type": "Point", "coordinates": [ -76.88625, 40.96245, 0.0 ] } },
{ "type": "Feature", "properties": { "Name": "Solebury Police Dept", "Description": "http:\/\/navigator.er.usgs.gov\/browse\/node\/1717566" }, "geometry": { "type": "Point", "coordinates": [ -75.0078, 40.380920000000103, 0.0 ] } },
{ "type": "Feature", "properties": { "Name": "Mount Joy Police Dept", "Description": "http:\/\/navigator.er.usgs.gov\/browse\/node\/1717599" }, "geometry": { "type": "Point", "coordinates": [ -76.5584, 40.143770000000103, 0.0 ] } },
{ "type": "Feature", "properties": { "Name": "West Donegal Twp Police", "Description": "http:\/\/navigator.er.usgs.gov\/browse\/node\/1717605" }, "geometry": { "type": "Point", "coordinates": [ -76.600909999999899, 40.138390000000101, 0.0 ] } },
{ "type": "Feature", "properties": { "Name": "Palymra Police Department", "Description": "http:\/\/navigator.er.usgs.gov\/browse\/node\/1717610" }, "geometry": { "type": "Point", "coordinates": [ -76.59214, 40.3053600000001, 0.0 ] } },
{ "type": "Feature", "properties": { "Name": "Mercersburg Police Dept", "Description": "http:\/\/navigator.er.usgs.gov\/browse\/node\/1717616" }, "geometry": { "type": "Point", "coordinates": [ -77.90375, 39.82685, 0.0 ] } },
{ "type": "Feature", "properties": { "Name": "Blairsville Police Dept", "Description": "http:\/\/navigator.er.usgs.gov\/browse\/node\/1717624" }, "geometry": { "type": "Point", "coordinates": [ -79.25899, 40.43112, 0.0 ] } },
{ "type": "Feature", "properties": { "Name": "Plymouth Township Police", "Description": "http:\/\/navigator.er.usgs.gov\/browse\/node\/1717628" }, "geometry": { "type": "Point", "coordinates": [ -75.298249999999896, 40.11971, 0.0 ] } },
{ "type": "Feature", "properties": { "Name": "Lower Makefield Police Dept", "Description": "http:\/\/navigator.er.usgs.gov\/browse\/node\/1717634" }, "geometry": { "type": "Point", "coordinates": [ -74.83635, 40.22418, 0.0 ] } },
{ "type": "Feature", "properties": { "Name": "Rye Township Police", "Description": "http:\/\/navigator.er.usgs.gov\/browse\/node\/1717646" }, "geometry": { "type": "Point", "coordinates": [ -76.98988, 40.3242, 0.0 ] } },
{ "type": "Feature", "properties": { "Name": "Duncannon Police Dept", "Description": "http:\/\/navigator.er.usgs.gov\/browse\/node\/1717661" }, "geometry": { "type": "Point", "coordinates": [ -77.0574, 40.39474, 0.0 ] } },
{ "type": "Feature", "properties": { "Name": "New Hanover Police Dept", "Description": "http:\/\/navigator.er.usgs.gov\/browse\/node\/1717665" }, "geometry": { "type": "Point", "coordinates": [ -75.58324, 40.30139, 0.0 ] } },
{ "type": "Feature", "properties": { "Name": "Schuylkill County Sheriff", "Description": "http:\/\/navigator.er.usgs.gov\/browse\/node\/1717675" }, "geometry": { "type": "Point", "coordinates": [ -76.19261, 40.68478, 0.0 ] } },
{ "type": "Feature", "properties": { "Name": "Dickson City Police Dept", "Description": "http:\/\/navigator.er.usgs.gov\/browse\/node\/1717679" }, "geometry": { "type": "Point", "coordinates": [ -75.62343, 41.458080000000102, 0.0 ] } },
{ "type": "Feature", "properties": { "Name": "Williamsport Police Dept", "Description": "http:\/\/navigator.er.usgs.gov\/browse\/node\/1717694" }, "geometry": { "type": "Point", "coordinates": [ -77.006709999999899, 41.239980000000102, 0.0 ] } },
{ "type": "Feature", "properties": { "Name": "East Vincent Twp Police Adm", "Description": "http:\/\/navigator.er.usgs.gov\/browse\/node\/1717706" }, "geometry": { "type": "Point", "coordinates": [ -75.56752, 40.154890000000101, 0.0 ] } },
{ "type": "Feature", "properties": { "Name": "Allentown Police Dept", "Description": "http:\/\/navigator.er.usgs.gov\/browse\/node\/1717707" }, "geometry": { "type": "Point", "coordinates": [ -75.44271, 40.5924, 0.0 ] } },
{ "type": "Feature", "properties": { "Name": "Upper Southampton Police Dept", "Description": "http:\/\/navigator.er.usgs.gov\/browse\/node\/1717708" }, "geometry": { "type": "Point", "coordinates": [ -75.03776, 40.17104, 0.0 ] } },
{ "type": "Feature", "properties": { "Name": "Warrington Township Police", "Description": "http:\/\/navigator.er.usgs.gov\/browse\/node\/1717716" }, "geometry": { "type": "Point", "coordinates": [ -75.17341, 40.2588200000001, 0.0 ] } },
{ "type": "Feature", "properties": { "Name": "Cresson Police Dept", "Description": "http:\/\/navigator.er.usgs.gov\/browse\/node\/1717728" }, "geometry": { "type": "Point", "coordinates": [ -78.56683, 40.46045, 0.0 ] } },
{ "type": "Feature", "properties": { "Name": "Duquesne City Police Dept", "Description": "http:\/\/navigator.er.usgs.gov\/browse\/node\/1717764" }, "geometry": { "type": "Point", "coordinates": [ -79.84694, 40.373060000000102, 0.0 ] } },
{ "type": "Feature", "properties": { "Name": "East Norriton Twp Police Dept", "Description": "http:\/\/navigator.er.usgs.gov\/browse\/node\/1717766" }, "geometry": { "type": "Point", "coordinates": [ -75.33247, 40.14194, 0.0 ] } },
{ "type": "Feature", "properties": { "Name": "Gordon Boro Police Dept", "Description": "http:\/\/navigator.er.usgs.gov\/browse\/node\/1717779" }, "geometry": { "type": "Point", "coordinates": [ -76.33933, 40.74935, 0.0 ] } },
{ "type": "Feature", "properties": { "Name": "Police Dept", "Description": "http:\/\/navigator.er.usgs.gov\/browse\/node\/1717805" }, "geometry": { "type": "Point", "coordinates": [ -75.280349999999899, 39.96545, 0.0 ] } },
{ "type": "Feature", "properties": { "Name": "Petersburg Police Dept", "Description": "http:\/\/navigator.er.usgs.gov\/browse\/node\/1717815" }, "geometry": { "type": "Point", "coordinates": [ -78.04783, 40.5748, 0.0 ] } },
{ "type": "Feature", "properties": { "Name": "Northumberland Police Dept", "Description": "http:\/\/navigator.er.usgs.gov\/browse\/node\/1717838" }, "geometry": { "type": "Point", "coordinates": [ -76.79709, 40.889720000000104, 0.0 ] } },
{ "type": "Feature", "properties": { "Name": "New Brighton Police Dept", "Description": "http:\/\/navigator.er.usgs.gov\/browse\/node\/1717849" }, "geometry": { "type": "Point", "coordinates": [ -80.316149999999894, 40.73702, 0.0 ] } },
{ "type": "Feature", "properties": { "Name": "East Bangor Police Dept", "Description": "http:\/\/navigator.er.usgs.gov\/browse\/node\/1717854" }, "geometry": { "type": "Point", "coordinates": [ -75.18434, 40.8793000000001, 0.0 ] } },
{ "type": "Feature", "properties": { "Name": "Birdsboro Police Dept", "Description": "http:\/\/navigator.er.usgs.gov\/browse\/node\/1717856" }, "geometry": { "type": "Point", "coordinates": [ -75.808089999999893, 40.26615, 0.0 ] } },
{ "type": "Feature", "properties": { "Name": "Northeaster Berks Regl Police", "Description": "http:\/\/navigator.er.usgs.gov\/browse\/node\/1717859" }, "geometry": { "type": "Point", "coordinates": [ -75.770489999999896, 40.5075900000001, 0.0 ] } },
{ "type": "Feature", "properties": { "Name": "Pittsburgh Police Dept", "Description": "http:\/\/navigator.er.usgs.gov\/browse\/node\/1717863" }, "geometry": { "type": "Point", "coordinates": [ -79.93696, 40.424140000000101, 0.0 ] } },
{ "type": "Feature", "properties": { "Name": "Braddock Chief Of Police", "Description": "http:\/\/navigator.er.usgs.gov\/browse\/node\/1717864" }, "geometry": { "type": "Point", "coordinates": [ -79.869, 40.40405, 0.0 ] } },
{ "type": "Feature", "properties": { "Name": "Luzerne Boro Police Dept", "Description": "http:\/\/navigator.er.usgs.gov\/browse\/node\/1717869" }, "geometry": { "type": "Point", "coordinates": [ -75.89133, 41.2818800000001, 0.0 ] } },
{ "type": "Feature", "properties": { "Name": "Police Department", "Description": "http:\/\/navigator.er.usgs.gov\/browse\/node\/1717871" }, "geometry": { "type": "Point", "coordinates": [ -75.98432, 40.55589, 0.0 ] } },
{ "type": "Feature", "properties": { "Name": "Penn Twp Police Dept", "Description": "http:\/\/navigator.er.usgs.gov\/browse\/node\/1717886" }, "geometry": { "type": "Point", "coordinates": [ -79.905259999999899, 40.8168900000001, 0.0 ] } },
{ "type": "Feature", "properties": { "Name": "Blair Twp Police", "Description": "http:\/\/navigator.er.usgs.gov\/browse\/node\/1717888" }, "geometry": { "type": "Point", "coordinates": [ -78.40539, 40.42094, 0.0 ] } },
{ "type": "Feature", "properties": { "Name": "Millerstown Police Dept", "Description": "http:\/\/navigator.er.usgs.gov\/browse\/node\/1717894" }, "geometry": { "type": "Point", "coordinates": [ -77.15742, 40.55303, 0.0 ] } },
{ "type": "Feature", "properties": { "Name": "Upper St Clair Twp Police Dept", "Description": "http:\/\/navigator.er.usgs.gov\/browse\/node\/1717901" }, "geometry": { "type": "Point", "coordinates": [ -80.07327, 40.33524, 0.0 ] } },
{ "type": "Feature", "properties": { "Name": "Wampum Police Dept", "Description": "http:\/\/navigator.er.usgs.gov\/browse\/node\/1717911" }, "geometry": { "type": "Point", "coordinates": [ -80.34579, 41.000340000000101, 0.0 ] } },
{ "type": "Feature", "properties": { "Name": "Pittsburgh Police Station", "Description": "http:\/\/navigator.er.usgs.gov\/browse\/node\/1717931" }, "geometry": { "type": "Point", "coordinates": [ -79.93306, 40.38442, 0.0 ] } },
{ "type": "Feature", "properties": { "Name": "Allentown Police Dept", "Description": "http:\/\/navigator.er.usgs.gov\/browse\/node\/1717947" }, "geometry": { "type": "Point", "coordinates": [ -75.4586, 40.61246, 0.0 ] } },
{ "type": "Feature", "properties": { "Name": "Clymer Police Dept", "Description": "http:\/\/navigator.er.usgs.gov\/browse\/node\/1717956" }, "geometry": { "type": "Point", "coordinates": [ -79.01615, 40.67109, 0.0 ] } },
{ "type": "Feature", "properties": { "Name": "Beaver County Sheriff's Office", "Description": "http:\/\/navigator.er.usgs.gov\/browse\/node\/1717970" }, "geometry": { "type": "Point", "coordinates": [ -80.30753, 40.694180000000102, 0.0 ] } },
{ "type": "Feature", "properties": { "Name": "White Haven Police Dept", "Description": "http:\/\/navigator.er.usgs.gov\/browse\/node\/1717990" }, "geometry": { "type": "Point", "coordinates": [ -75.779359999999897, 41.06492, 0.0 ] } },
{ "type": "Feature", "properties": { "Name": "Susquehanna Borough Police", "Description": "http:\/\/navigator.er.usgs.gov\/browse\/node\/1718001" }, "geometry": { "type": "Point", "coordinates": [ -75.60984, 41.94426, 0.0 ] } },
{ "type": "Feature", "properties": { "Name": "Ashley Borough Police", "Description": "http:\/\/navigator.er.usgs.gov\/browse\/node\/1718009" }, "geometry": { "type": "Point", "coordinates": [ -75.89981, 41.21347, 0.0 ] } },
{ "type": "Feature", "properties": { "Name": "Glenolden Borough Police Hdqrs", "Description": "http:\/\/navigator.er.usgs.gov\/browse\/node\/1718025" }, "geometry": { "type": "Point", "coordinates": [ -75.28854, 39.89964, 0.0 ] } },
{ "type": "Feature", "properties": { "Name": "West Homestead Police Chief", "Description": "http:\/\/navigator.er.usgs.gov\/browse\/node\/1718028" }, "geometry": { "type": "Point", "coordinates": [ -79.91755, 40.40184, 0.0 ] } },
{ "type": "Feature", "properties": { "Name": "Allentown Police Dept", "Description": "http:\/\/navigator.er.usgs.gov\/browse\/node\/1718031" }, "geometry": { "type": "Point", "coordinates": [ -75.49344, 40.60105, 0.0 ] } },
{ "type": "Feature", "properties": { "Name": "Clarion County Sheriff's Ofc", "Description": "http:\/\/navigator.er.usgs.gov\/browse\/node\/1718042" }, "geometry": { "type": "Point", "coordinates": [ -79.38702, 41.2153, 0.0 ] } },
{ "type": "Feature", "properties": { "Name": "Bedminster Township Police", "Description": "http:\/\/navigator.er.usgs.gov\/browse\/node\/1718044" }, "geometry": { "type": "Point", "coordinates": [ -75.18153, 40.42628, 0.0 ] } },
{ "type": "Feature", "properties": { "Name": "Weatherly Police Dept", "Description": "http:\/\/navigator.er.usgs.gov\/browse\/node\/1718045" }, "geometry": { "type": "Point", "coordinates": [ -75.82427, 40.93607, 0.0 ] } },
{ "type": "Feature", "properties": { "Name": "Linesville Police Dept", "Description": "http:\/\/navigator.er.usgs.gov\/browse\/node\/1718053" }, "geometry": { "type": "Point", "coordinates": [ -80.42467, 41.65626, 0.0 ] } },
{ "type": "Feature", "properties": { "Name": "Lancaster Police Dispatch", "Description": "http:\/\/navigator.er.usgs.gov\/browse\/node\/1718057" }, "geometry": { "type": "Point", "coordinates": [ -76.396209999999897, 40.162080000000103, 0.0 ] } },
{ "type": "Feature", "properties": { "Name": "Somerset Police Dept", "Description": "http:\/\/navigator.er.usgs.gov\/browse\/node\/1718060" }, "geometry": { "type": "Point", "coordinates": [ -79.08408, 40.009390000000103, 0.0 ] } },
{ "type": "Feature", "properties": { "Name": "Tower City Police Dept", "Description": "http:\/\/navigator.er.usgs.gov\/browse\/node\/1718066" }, "geometry": { "type": "Point", "coordinates": [ -76.55194, 40.590530000000101, 0.0 ] } },
{ "type": "Feature", "properties": { "Name": "Mc Donald Boro Police Dept", "Description": "http:\/\/navigator.er.usgs.gov\/browse\/node\/1718076" }, "geometry": { "type": "Point", "coordinates": [ -80.23434, 40.36982, 0.0 ] } },
{ "type": "Feature", "properties": { "Name": "Lower Merion Police-Animal", "Description": "http:\/\/navigator.er.usgs.gov\/browse\/node\/1718112" }, "geometry": { "type": "Point", "coordinates": [ -75.28783, 40.006280000000103, 0.0 ] } },
{ "type": "Feature", "properties": { "Name": "Marlborough Twp Police", "Description": "http:\/\/navigator.er.usgs.gov\/browse\/node\/1718122" }, "geometry": { "type": "Point", "coordinates": [ -75.466409999999897, 40.33112, 0.0 ] } },
{ "type": "Feature", "properties": { "Name": "Upper Chichester Police Dept", "Description": "http:\/\/navigator.er.usgs.gov\/browse\/node\/1718131" }, "geometry": { "type": "Point", "coordinates": [ -75.44916, 39.8332300000001, 0.0 ] } },
{ "type": "Feature", "properties": { "Name": "Upper Darby Police Assoc", "Description": "http:\/\/navigator.er.usgs.gov\/browse\/node\/1718161" }, "geometry": { "type": "Point", "coordinates": [ -75.266639999999896, 39.96344, 0.0 ] } },
{ "type": "Feature", "properties": { "Name": "Latrobe Police Dept", "Description": "http:\/\/navigator.er.usgs.gov\/browse\/node\/1718170" }, "geometry": { "type": "Point", "coordinates": [ -79.38541, 40.31558, 0.0 ] } },
{ "type": "Feature", "properties": { "Name": "Perry County Sheriffs Office", "Description": "http:\/\/navigator.er.usgs.gov\/browse\/node\/1718201" }, "geometry": { "type": "Point", "coordinates": [ -77.19003, 40.41867, 0.0 ] } },
{ "type": "Feature", "properties": { "Name": "Conneautville Police Dept", "Description": "http:\/\/navigator.er.usgs.gov\/browse\/node\/1718235" }, "geometry": { "type": "Point", "coordinates": [ -80.36949, 41.758690000000101, 0.0 ] } },
{ "type": "Feature", "properties": { "Name": "Ligonier Borough Police Dept", "Description": "http:\/\/navigator.er.usgs.gov\/browse\/node\/1718242" }, "geometry": { "type": "Point", "coordinates": [ -79.23876, 40.24395, 0.0 ] } },
{ "type": "Feature", "properties": { "Name": "Bethel Township Police Dept", "Description": "http:\/\/navigator.er.usgs.gov\/browse\/node\/1718248" }, "geometry": { "type": "Point", "coordinates": [ -76.37647, 40.44806, 0.0 ] } },
{ "type": "Feature", "properties": { "Name": "Police Department-Records", "Description": "http:\/\/navigator.er.usgs.gov\/browse\/node\/1718251" }, "geometry": { "type": "Point", "coordinates": [ -75.93015, 41.32818, 0.0 ] } },
{ "type": "Feature", "properties": { "Name": "Homer City Police Dept", "Description": "http:\/\/navigator.er.usgs.gov\/browse\/node\/1718260" }, "geometry": { "type": "Point", "coordinates": [ -79.159449999999893, 40.54006, 0.0 ] } },
{ "type": "Feature", "properties": { "Name": "Titusville Police Dept", "Description": "http:\/\/navigator.er.usgs.gov\/browse\/node\/1718286" }, "geometry": { "type": "Point", "coordinates": [ -79.67336, 41.630180000000102, 0.0 ] } },
{ "type": "Feature", "properties": { "Name": "Branch Twp Police Dept", "Description": "http:\/\/navigator.er.usgs.gov\/browse\/node\/1718307" }, "geometry": { "type": "Point", "coordinates": [ -76.27913, 40.673450000000102, 0.0 ] } },
{ "type": "Feature", "properties": { "Name": "Upper Providence Police Dept", "Description": "http:\/\/navigator.er.usgs.gov\/browse\/node\/1718327" }, "geometry": { "type": "Point", "coordinates": [ -75.45987, 40.189010000000103, 0.0 ] } },
{ "type": "Feature", "properties": { "Name": "Jamestown Police Dept", "Description": "http:\/\/navigator.er.usgs.gov\/browse\/node\/1718340" }, "geometry": { "type": "Point", "coordinates": [ -80.43744, 41.4858, 0.0 ] } },
{ "type": "Feature", "properties": { "Name": "Laureldale Police Dept", "Description": "http:\/\/navigator.er.usgs.gov\/browse\/node\/1718344" }, "geometry": { "type": "Point", "coordinates": [ -75.920389999999898, 40.38762, 0.0 ] } },
{ "type": "Feature", "properties": { "Name": "Moosic Police Dept", "Description": "http:\/\/navigator.er.usgs.gov\/browse\/node\/1718345" }, "geometry": { "type": "Point", "coordinates": [ -75.730549999999894, 41.35545, 0.0 ] } },
{ "type": "Feature", "properties": { "Name": "Shenango Twp Police Dept", "Description": "http:\/\/navigator.er.usgs.gov\/browse\/node\/1718349" }, "geometry": { "type": "Point", "coordinates": [ -80.48461, 41.1695700000001, 0.0 ] } },
{ "type": "Feature", "properties": { "Name": "Pittsburgh Police Station", "Description": "http:\/\/navigator.er.usgs.gov\/browse\/node\/1718354" }, "geometry": { "type": "Point", "coordinates": [ -80.01849, 40.39264, 0.0 ] } },
{ "type": "Feature", "properties": { "Name": "Montoursville Borough Police", "Description": "http:\/\/navigator.er.usgs.gov\/browse\/node\/1718372" }, "geometry": { "type": "Point", "coordinates": [ -76.92147, 41.25762, 0.0 ] } },
{ "type": "Feature", "properties": { "Name": "Pike County Sheriff's Office", "Description": "http:\/\/navigator.er.usgs.gov\/browse\/node\/1718374" }, "geometry": { "type": "Point", "coordinates": [ -74.8004, 41.32469, 0.0 ] } },
{ "type": "Feature", "properties": { "Name": "Freeport Police Dept", "Description": "http:\/\/navigator.er.usgs.gov\/browse\/node\/1718389" }, "geometry": { "type": "Point", "coordinates": [ -79.68693, 40.67229, 0.0 ] } },
{ "type": "Feature", "properties": { "Name": "Cambria County Sheriff", "Description": "http:\/\/navigator.er.usgs.gov\/browse\/node\/1718398" }, "geometry": { "type": "Point", "coordinates": [ -78.72511, 40.4843100000001, 0.0 ] } },
{ "type": "Feature", "properties": { "Name": "Darlington Twp Police Dept", "Description": "http:\/\/navigator.er.usgs.gov\/browse\/node\/1718407" }, "geometry": { "type": "Point", "coordinates": [ -80.43754, 40.807650000000102, 0.0 ] } },
{ "type": "Feature", "properties": { "Name": "Montrose Boro Police Dept", "Description": "http:\/\/navigator.er.usgs.gov\/browse\/node\/1718411" }, "geometry": { "type": "Point", "coordinates": [ -75.87634, 41.834150000000101, 0.0 ] } },
{ "type": "Feature", "properties": { "Name": "Beaver Police Dept", "Description": "http:\/\/navigator.er.usgs.gov\/browse\/node\/1718416" }, "geometry": { "type": "Point", "coordinates": [ -80.302639999999897, 40.69611, 0.0 ] } },
{ "type": "Feature", "properties": { "Name": "Clifton Heights Police Dept", "Description": "http:\/\/navigator.er.usgs.gov\/browse\/node\/1718423" }, "geometry": { "type": "Point", "coordinates": [ -75.29666, 39.92899, 0.0 ] } },
{ "type": "Feature", "properties": { "Name": "Confluence Police Dept", "Description": "http:\/\/navigator.er.usgs.gov\/browse\/node\/1718429" }, "geometry": { "type": "Point", "coordinates": [ -79.35835, 39.81194, 0.0 ] } },
{ "type": "Feature", "properties": { "Name": "Independence Twp Police Dept", "Description": "http:\/\/navigator.er.usgs.gov\/browse\/node\/1718434" }, "geometry": { "type": "Point", "coordinates": [ -80.32478, 40.53411, 0.0 ] } },
{ "type": "Feature", "properties": { "Name": "Washington Police Dept", "Description": "http:\/\/navigator.er.usgs.gov\/browse\/node\/1718441" }, "geometry": { "type": "Point", "coordinates": [ -80.24646, 40.16838, 0.0 ] } },
{ "type": "Feature", "properties": { "Name": "New Hope Police Dept", "Description": "http:\/\/navigator.er.usgs.gov\/browse\/node\/1718469" }, "geometry": { "type": "Point", "coordinates": [ -74.95143, 40.36421, 0.0 ] } },
{ "type": "Feature", "properties": { "Name": "Baldwin Boro Police Dept", "Description": "http:\/\/navigator.er.usgs.gov\/browse\/node\/1718476" }, "geometry": { "type": "Point", "coordinates": [ -79.96155, 40.38565, 0.0 ] } },
{ "type": "Feature", "properties": { "Name": "Mahanoy Police Dept", "Description": "http:\/\/navigator.er.usgs.gov\/browse\/node\/1718481" }, "geometry": { "type": "Point", "coordinates": [ -76.13903, 40.81238, 0.0 ] } },
{ "type": "Feature", "properties": { "Name": "Barrett Township Police Dept", "Description": "http:\/\/navigator.er.usgs.gov\/browse\/node\/1718482" }, "geometry": { "type": "Point", "coordinates": [ -75.21875, 41.15499, 0.0 ] } },
{ "type": "Feature", "properties": { "Name": "Rush Twp Police Dept", "Description": "http:\/\/navigator.er.usgs.gov\/browse\/node\/1718486" }, "geometry": { "type": "Point", "coordinates": [ -75.98225, 40.822650000000102, 0.0 ] } },
{ "type": "Feature", "properties": { "Name": "Duryea Boro Police Dept", "Description": "http:\/\/navigator.er.usgs.gov\/browse\/node\/1718487" }, "geometry": { "type": "Point", "coordinates": [ -75.76381, 41.35083, 0.0 ] } },
{ "type": "Feature", "properties": { "Name": "Warwick Township Police Dept", "Description": "http:\/\/navigator.er.usgs.gov\/browse\/node\/1718507" }, "geometry": { "type": "Point", "coordinates": [ -76.27704, 40.15904, 0.0 ] } },
{ "type": "Feature", "properties": { "Name": "Quarryville Police Dept", "Description": "http:\/\/navigator.er.usgs.gov\/browse\/node\/1718515" }, "geometry": { "type": "Point", "coordinates": [ -76.16141, 39.89376, 0.0 ] } },
{ "type": "Feature", "properties": { "Name": "Westmoreland County Sheriff", "Description": "http:\/\/navigator.er.usgs.gov\/browse\/node\/1718517" }, "geometry": { "type": "Point", "coordinates": [ -79.54432, 40.30258, 0.0 ] } },
{ "type": "Feature", "properties": { "Name": "Saint Marys Police Dept", "Description": "http:\/\/navigator.er.usgs.gov\/browse\/node\/1718521" }, "geometry": { "type": "Point", "coordinates": [ -78.55471, 41.4309200000001, 0.0 ] } },
{ "type": "Feature", "properties": { "Name": "Lackawanna County Police Comm", "Description": "http:\/\/navigator.er.usgs.gov\/browse\/node\/1718531" }, "geometry": { "type": "Point", "coordinates": [ -75.66211, 41.40729, 0.0 ] } },
{ "type": "Feature", "properties": { "Name": "Indiana Boro Police Dept", "Description": "http:\/\/navigator.er.usgs.gov\/browse\/node\/1718533" }, "geometry": { "type": "Point", "coordinates": [ -79.15467, 40.624070000000103, 0.0 ] } },
{ "type": "Feature", "properties": { "Name": "Derry Borough Police", "Description": "http:\/\/navigator.er.usgs.gov\/browse\/node\/1718538" }, "geometry": { "type": "Point", "coordinates": [ -79.29922, 40.33309, 0.0 ] } },
{ "type": "Feature", "properties": { "Name": "Local Police", "Description": "http:\/\/navigator.er.usgs.gov\/browse\/node\/1718550" }, "geometry": { "type": "Point", "coordinates": [ -75.29562, 40.9493200000001, 0.0 ] } },
{ "type": "Feature", "properties": { "Name": "Parker City Police Dept", "Description": "http:\/\/navigator.er.usgs.gov\/browse\/node\/1718569" }, "geometry": { "type": "Point", "coordinates": [ -79.76949, 41.119500000000102, 0.0 ] } },
{ "type": "Feature", "properties": { "Name": "Wyoming Boro Police Dept", "Description": "http:\/\/navigator.er.usgs.gov\/browse\/node\/1718593" }, "geometry": { "type": "Point", "coordinates": [ -75.831819999999894, 41.31576, 0.0 ] } },
{ "type": "Feature", "properties": { "Name": "Upper Saucon Police Department", "Description": "http:\/\/navigator.er.usgs.gov\/browse\/node\/1718595" }, "geometry": { "type": "Point", "coordinates": [ -75.40307, 40.53547, 0.0 ] } },
{ "type": "Feature", "properties": { "Name": "South Lebanon Twp Police Dept", "Description": "http:\/\/navigator.er.usgs.gov\/browse\/node\/1718617" }, "geometry": { "type": "Point", "coordinates": [ -76.3685, 40.31796, 0.0 ] } },
{ "type": "Feature", "properties": { "Name": "East Franklin Twp Police Dept", "Description": "http:\/\/navigator.er.usgs.gov\/browse\/node\/1718625" }, "geometry": { "type": "Point", "coordinates": [ -79.5317, 40.81592, 0.0 ] } },
{ "type": "Feature", "properties": { "Name": "Police Bureau-Crime Prevention", "Description": "http:\/\/navigator.er.usgs.gov\/browse\/node\/1718629" }, "geometry": { "type": "Point", "coordinates": [ -75.92134, 40.33692, 0.0 ] } },
{ "type": "Feature", "properties": { "Name": "Vandergrift Police Dept", "Description": "http:\/\/navigator.er.usgs.gov\/browse\/node\/1718638" }, "geometry": { "type": "Point", "coordinates": [ -79.56452, 40.60533, 0.0 ] } },
{ "type": "Feature", "properties": { "Name": "Edgewood Police Dept", "Description": "http:\/\/navigator.er.usgs.gov\/browse\/node\/1718644" }, "geometry": { "type": "Point", "coordinates": [ -79.88384, 40.433990000000101, 0.0 ] } },
{ "type": "Feature", "properties": { "Name": "Pittsburgh Police Div", "Description": "http:\/\/navigator.er.usgs.gov\/browse\/node\/1718645" }, "geometry": { "type": "Point", "coordinates": [ -79.90362, 40.44998, 0.0 ] } },
{ "type": "Feature", "properties": { "Name": "Decatur Twp Police Dept", "Description": "http:\/\/navigator.er.usgs.gov\/browse\/node\/1718646" }, "geometry": { "type": "Point", "coordinates": [ -78.2671, 40.85581, 0.0 ] } },
{ "type": "Feature", "properties": { "Name": "Pittsburgh Police Station", "Description": "http:\/\/navigator.er.usgs.gov\/browse\/node\/1718655" }, "geometry": { "type": "Point", "coordinates": [ -79.92696, 40.46178, 0.0 ] } },
{ "type": "Feature", "properties": { "Name": "Harrison Twp Police Dept", "Description": "http:\/\/navigator.er.usgs.gov\/browse\/node\/1718657" }, "geometry": { "type": "Point", "coordinates": [ -79.71904, 40.62573, 0.0 ] } },
{ "type": "Feature", "properties": { "Name": "Montgomery Twp Police Dept", "Description": "http:\/\/navigator.er.usgs.gov\/browse\/node\/1718666" }, "geometry": { "type": "Point", "coordinates": [ -75.22626, 40.22412, 0.0 ] } },
{ "type": "Feature", "properties": { "Name": "Sheriff's Office-Warrants Div", "Description": "http:\/\/navigator.er.usgs.gov\/browse\/node\/1718681" }, "geometry": { "type": "Point", "coordinates": [ -75.92491, 40.33622, 0.0 ] } },
{ "type": "Feature", "properties": { "Name": "Patton Boro Police Office", "Description": "http:\/\/navigator.er.usgs.gov\/browse\/node\/1718683" }, "geometry": { "type": "Point", "coordinates": [ -78.64884, 40.63386, 0.0 ] } },
{ "type": "Feature", "properties": { "Name": "Franklin Twp Police Dept", "Description": "http:\/\/navigator.er.usgs.gov\/browse\/node\/1718690" }, "geometry": { "type": "Point", "coordinates": [ -80.208439999999896, 40.836210000000101, 0.0 ] } },
{ "type": "Feature", "properties": { "Name": "Bethel Twp Police Dept", "Description": "http:\/\/navigator.er.usgs.gov\/browse\/node\/1718692" }, "geometry": { "type": "Point", "coordinates": [ -75.49061, 39.85496, 0.0 ] } },
{ "type": "Feature", "properties": { "Name": "Elizabethtown Police Adm", "Description": "http:\/\/navigator.er.usgs.gov\/browse\/node\/1718715" }, "geometry": { "type": "Point", "coordinates": [ -76.59939, 40.14619, 0.0 ] } },
{ "type": "Feature", "properties": { "Name": "Wampum Police Dept", "Description": "http:\/\/navigator.er.usgs.gov\/browse\/node\/1718727" }, "geometry": { "type": "Point", "coordinates": [ -80.34257, 40.89111, 0.0 ] } },
{ "type": "Feature", "properties": { "Name": "Perkasie Borough Police Ofc", "Description": "http:\/\/navigator.er.usgs.gov\/browse\/node\/1718737" }, "geometry": { "type": "Point", "coordinates": [ -75.30267, 40.372430000000101, 0.0 ] } },
{ "type": "Feature", "properties": { "Name": "Newtown Twp Police Dept", "Description": "http:\/\/navigator.er.usgs.gov\/browse\/node\/1718743" }, "geometry": { "type": "Point", "coordinates": [ -74.96144, 40.25646, 0.0 ] } },
{ "type": "Feature", "properties": { "Name": "Manor Township Police Dept", "Description": "http:\/\/navigator.er.usgs.gov\/browse\/node\/1718759" }, "geometry": { "type": "Point", "coordinates": [ -76.36387, 40.02795, 0.0 ] } },
{ "type": "Feature", "properties": { "Name": "Mt Carmel Twp Police Dept", "Description": "http:\/\/navigator.er.usgs.gov\/browse\/node\/1718777" }, "geometry": { "type": "Point", "coordinates": [ -76.42886, 40.798580000000101, 0.0 ] } },
{ "type": "Feature", "properties": { "Name": "Hughesville Boro Police", "Description": "http:\/\/navigator.er.usgs.gov\/browse\/node\/1718785" }, "geometry": { "type": "Point", "coordinates": [ -76.72201, 41.23569, 0.0 ] } },
{ "type": "Feature", "properties": { "Name": "Laflin Boro Police Hdqrs", "Description": "http:\/\/navigator.er.usgs.gov\/browse\/node\/1718786" }, "geometry": { "type": "Point", "coordinates": [ -75.79406, 41.28881, 0.0 ] } },
{ "type": "Feature", "properties": { "Name": "Lower Heidelberg Twp Police", "Description": "http:\/\/navigator.er.usgs.gov\/browse\/node\/1718795" }, "geometry": { "type": "Point", "coordinates": [ -76.04017, 40.36145, 0.0 ] } },
{ "type": "Feature", "properties": { "Name": "Wilmerding Boro Police Dept", "Description": "http:\/\/navigator.er.usgs.gov\/browse\/node\/1718803" }, "geometry": { "type": "Point", "coordinates": [ -79.80688, 40.39324, 0.0 ] } },
{ "type": "Feature", "properties": { "Name": "Bethlehem Police Commissioner", "Description": "http:\/\/navigator.er.usgs.gov\/browse\/node\/1718806" }, "geometry": { "type": "Point", "coordinates": [ -75.37816, 40.618670000000101, 0.0 ] } },
{ "type": "Feature", "properties": { "Name": "Hilltown Twp Police Dept", "Description": "http:\/\/navigator.er.usgs.gov\/browse\/node\/1718815" }, "geometry": { "type": "Point", "coordinates": [ -75.25674, 40.34218, 0.0 ] } },
{ "type": "Feature", "properties": { "Name": "Upper Makefield Police Dept", "Description": "http:\/\/navigator.er.usgs.gov\/browse\/node\/1718851" }, "geometry": { "type": "Point", "coordinates": [ -74.939639999999898, 40.29026, 0.0 ] } },
{ "type": "Feature", "properties": { "Name": "Fawn Twp Police Dept", "Description": "http:\/\/navigator.er.usgs.gov\/browse\/node\/1718872" }, "geometry": { "type": "Point", "coordinates": [ -79.75946, 40.658210000000103, 0.0 ] } },
{ "type": "Feature", "properties": { "Name": "Brighton Twp Police Dept", "Description": "http:\/\/navigator.er.usgs.gov\/browse\/node\/1718877" }, "geometry": { "type": "Point", "coordinates": [ -80.36645, 40.7003300000001, 0.0 ] } },
{ "type": "Feature", "properties": { "Name": "Pocono Twp Police Dept", "Description": "http:\/\/navigator.er.usgs.gov\/browse\/node\/1718878" }, "geometry": { "type": "Point", "coordinates": [ -75.291989999999899, 41.04956, 0.0 ] } },
{ "type": "Feature", "properties": { "Name": "Clairton Police Dept", "Description": "http:\/\/navigator.er.usgs.gov\/browse\/node\/1718906" }, "geometry": { "type": "Point", "coordinates": [ -79.89526, 40.30081, 0.0 ] } },
{ "type": "Feature", "properties": { "Name": "New Beaver Police Dept", "Description": "http:\/\/navigator.er.usgs.gov\/browse\/node\/1718911" }, "geometry": { "type": "Point", "coordinates": [ -80.37544, 40.91992, 0.0 ] } },
{ "type": "Feature", "properties": { "Name": "Lamar Township Police Dept", "Description": "http:\/\/navigator.er.usgs.gov\/browse\/node\/1718918" }, "geometry": { "type": "Point", "coordinates": [ -77.48229, 41.10973, 0.0 ] } },
{ "type": "Feature", "properties": { "Name": "Sykesville Police Chief", "Description": "http:\/\/navigator.er.usgs.gov\/browse\/node\/1718922" }, "geometry": { "type": "Point", "coordinates": [ -78.8217, 41.05068, 0.0 ] } },
{ "type": "Feature", "properties": { "Name": "North Wales Boro Police", "Description": "http:\/\/navigator.er.usgs.gov\/browse\/node\/1718941" }, "geometry": { "type": "Point", "coordinates": [ -75.27933, 40.212400000000102, 0.0 ] } },
{ "type": "Feature", "properties": { "Name": "Landsale Police Dept", "Description": "http:\/\/navigator.er.usgs.gov\/browse\/node\/1718950" }, "geometry": { "type": "Point", "coordinates": [ -75.2863, 40.24113, 0.0 ] } },
{ "type": "Feature", "properties": { "Name": "Pleasant Hills Boro Police", "Description": "http:\/\/navigator.er.usgs.gov\/browse\/node\/1718967" }, "geometry": { "type": "Point", "coordinates": [ -79.95071, 40.330170000000102, 0.0 ] } },
{ "type": "Feature", "properties": { "Name": "North Braddock Police Dept", "Description": "http:\/\/navigator.er.usgs.gov\/browse\/node\/1718970" }, "geometry": { "type": "Point", "coordinates": [ -79.773259999999894, 40.48488, 0.0 ] } },
{ "type": "Feature", "properties": { "Name": "Snyder County Sheriff", "Description": "http:\/\/navigator.er.usgs.gov\/browse\/node\/1718984" }, "geometry": { "type": "Point", "coordinates": [ -77.04596, 40.79134, 0.0 ] } },
{ "type": "Feature", "properties": { "Name": "Mifflinburg Police Adm", "Description": "http:\/\/navigator.er.usgs.gov\/browse\/node\/1718986" }, "geometry": { "type": "Point", "coordinates": [ -77.04809, 40.91756, 0.0 ] } },
{ "type": "Feature", "properties": { "Name": "Wayne County Sheriff Office", "Description": "http:\/\/navigator.er.usgs.gov\/browse\/node\/1718995" }, "geometry": { "type": "Point", "coordinates": [ -75.25424, 41.57442, 0.0 ] } },
{ "type": "Feature", "properties": { "Name": "Montgomery County Sheriff", "Description": "http:\/\/navigator.er.usgs.gov\/browse\/node\/1719007" }, "geometry": { "type": "Point", "coordinates": [ -75.11199, 40.14082, 0.0 ] } },
{ "type": "Feature", "properties": { "Name": "Boro Of Souderton Police", "Description": "http:\/\/navigator.er.usgs.gov\/browse\/node\/1719036" }, "geometry": { "type": "Point", "coordinates": [ -75.329139999999896, 40.3133, 0.0 ] } },
{ "type": "Feature", "properties": { "Name": "Amity Twp Police Dept", "Description": "http:\/\/navigator.er.usgs.gov\/browse\/node\/1719040" }, "geometry": { "type": "Point", "coordinates": [ -75.74367, 40.30146, 0.0 ] } },
{ "type": "Feature", "properties": { "Name": "Dunmore Police Dept", "Description": "http:\/\/navigator.er.usgs.gov\/browse\/node\/1719050" }, "geometry": { "type": "Point", "coordinates": [ -75.63465, 41.41788, 0.0 ] } },
{ "type": "Feature", "properties": { "Name": "Swissvale Boro Police Chief", "Description": "http:\/\/navigator.er.usgs.gov\/browse\/node\/1719052" }, "geometry": { "type": "Point", "coordinates": [ -79.8846, 40.420340000000103, 0.0 ] } },
{ "type": "Feature", "properties": { "Name": "East Hempfield Twp Police", "Description": "http:\/\/navigator.er.usgs.gov\/browse\/node\/1719063" }, "geometry": { "type": "Point", "coordinates": [ -76.39905, 40.09489, 0.0 ] } },
{ "type": "Feature", "properties": { "Name": "Cumberland Township Police", "Description": "http:\/\/navigator.er.usgs.gov\/browse\/node\/1719068" }, "geometry": { "type": "Point", "coordinates": [ -79.96637, 39.90208, 0.0 ] } },
{ "type": "Feature", "properties": { "Name": "Brentwood Boro Police Dept", "Description": "http:\/\/navigator.er.usgs.gov\/browse\/node\/1719072" }, "geometry": { "type": "Point", "coordinates": [ -79.97556, 40.37366, 0.0 ] } },
{ "type": "Feature", "properties": { "Name": "Jeannette Police Dept", "Description": "http:\/\/navigator.er.usgs.gov\/browse\/node\/1719078" }, "geometry": { "type": "Point", "coordinates": [ -79.61569, 40.32696, 0.0 ] } },
{ "type": "Feature", "properties": { "Name": "Allentown Police Dept", "Description": "http:\/\/navigator.er.usgs.gov\/browse\/node\/1719080" }, "geometry": { "type": "Point", "coordinates": [ -75.46195, 40.6098900000001, 0.0 ] } },
{ "type": "Feature", "properties": { "Name": "Hermitage Police Dept", "Description": "http:\/\/navigator.er.usgs.gov\/browse\/node\/1719081" }, "geometry": { "type": "Point", "coordinates": [ -80.44992, 41.24104, 0.0 ] } },
{ "type": "Feature", "properties": { "Name": "Brookville Borough Police Dept", "Description": "http:\/\/navigator.er.usgs.gov\/browse\/node\/1719093" }, "geometry": { "type": "Point", "coordinates": [ -79.08082, 41.161740000000101, 0.0 ] } },
{ "type": "Feature", "properties": { "Name": "Exeter Twp Police Adm", "Description": "http:\/\/navigator.er.usgs.gov\/browse\/node\/1719099" }, "geometry": { "type": "Point", "coordinates": [ -75.8538, 40.30466, 0.0 ] } },
{ "type": "Feature", "properties": { "Name": "State Police Pennsylvania", "Description": "http:\/\/navigator.er.usgs.gov\/browse\/node\/1719114" }, "geometry": { "type": "Point", "coordinates": [ -77.57838, 40.642690000000101, 0.0 ] } },
{ "type": "Feature", "properties": { "Name": "Pittsburgh Police Station", "Description": "http:\/\/navigator.er.usgs.gov\/browse\/node\/1719122" }, "geometry": { "type": "Point", "coordinates": [ -79.87985, 40.435200000000101, 0.0 ] } },
{ "type": "Feature", "properties": { "Name": "South Fayette Chief Of Police", "Description": "http:\/\/navigator.er.usgs.gov\/browse\/node\/1719146" }, "geometry": { "type": "Point", "coordinates": [ -80.13888, 40.354730000000103, 0.0 ] } },
{ "type": "Feature", "properties": { "Name": "Gallitzin Police Dept", "Description": "http:\/\/navigator.er.usgs.gov\/browse\/node\/1719161" }, "geometry": { "type": "Point", "coordinates": [ -78.54973, 40.481180000000101, 0.0 ] } },
{ "type": "Feature", "properties": { "Name": "Kulpmont Police Dept", "Description": "http:\/\/navigator.er.usgs.gov\/browse\/node\/1719165" }, "geometry": { "type": "Point", "coordinates": [ -76.47148, 40.794760000000103, 0.0 ] } },
{ "type": "Feature", "properties": { "Name": "Narberth Police Dept", "Description": "http:\/\/navigator.er.usgs.gov\/browse\/node\/1719171" }, "geometry": { "type": "Point", "coordinates": [ -75.29321, 40.001, 0.0 ] } },
{ "type": "Feature", "properties": { "Name": "Lawrence Twp Police Dept", "Description": "http:\/\/navigator.er.usgs.gov\/browse\/node\/1719186" }, "geometry": { "type": "Point", "coordinates": [ -78.4435, 41.021540000000101, 0.0 ] } },
{ "type": "Feature", "properties": { "Name": "Blair County Sheriff's Office", "Description": "http:\/\/navigator.er.usgs.gov\/browse\/node\/1719190" }, "geometry": { "type": "Point", "coordinates": [ -78.39289, 40.42973, 0.0 ] } },
{ "type": "Feature", "properties": { "Name": "Allentown Police Dept", "Description": "http:\/\/navigator.er.usgs.gov\/browse\/node\/1719196" }, "geometry": { "type": "Point", "coordinates": [ -75.47034, 40.60724, 0.0 ] } },
{ "type": "Feature", "properties": { "Name": "Washington Twp Police Dept", "Description": "http:\/\/navigator.er.usgs.gov\/browse\/node\/1719198" }, "geometry": { "type": "Point", "coordinates": [ -78.58459, 40.466250000000102, 0.0 ] } },
{ "type": "Feature", "properties": { "Name": "Douglass Twp Police Dept", "Description": "http:\/\/navigator.er.usgs.gov\/browse\/node\/1719200" }, "geometry": { "type": "Point", "coordinates": [ -75.69363, 40.30038, 0.0 ] } },
{ "type": "Feature", "properties": { "Name": "Luzerne County Sheriff's Ofc", "Description": "http:\/\/navigator.er.usgs.gov\/browse\/node\/1719207" }, "geometry": { "type": "Point", "coordinates": [ -75.8778, 41.25161, 0.0 ] } },
{ "type": "Feature", "properties": { "Name": "Williamsport Police Station", "Description": "http:\/\/navigator.er.usgs.gov\/browse\/node\/1719218" }, "geometry": { "type": "Point", "coordinates": [ -77.01187, 41.243400000000101, 0.0 ] } },
{ "type": "Feature", "properties": { "Name": "Radnor Township Police Dept", "Description": "http:\/\/navigator.er.usgs.gov\/browse\/node\/1719223" }, "geometry": { "type": "Point", "coordinates": [ -75.37098, 40.037840000000102, 0.0 ] } },
{ "type": "Feature", "properties": { "Name": "Upper Gwynedd Twp Police Ofc", "Description": "http:\/\/navigator.er.usgs.gov\/browse\/node\/1719229" }, "geometry": { "type": "Point", "coordinates": [ -75.29564, 40.20993, 0.0 ] } },
{ "type": "Feature", "properties": { "Name": "Parkside Boro Police Dept", "Description": "http:\/\/navigator.er.usgs.gov\/browse\/node\/1719242" }, "geometry": { "type": "Point", "coordinates": [ -75.37861, 39.868110000000101, 0.0 ] } },
{ "type": "Feature", "properties": { "Name": "Allentown Police Dept", "Description": "http:\/\/navigator.er.usgs.gov\/browse\/node\/1719243" }, "geometry": { "type": "Point", "coordinates": [ -75.43362, 40.62318, 0.0 ] } },
{ "type": "Feature", "properties": { "Name": "Allentown Police Dept", "Description": "http:\/\/navigator.er.usgs.gov\/browse\/node\/1719247" }, "geometry": { "type": "Point", "coordinates": [ -75.46577, 40.59245, 0.0 ] } },
{ "type": "Feature", "properties": { "Name": "Milton Police Dept", "Description": "http:\/\/navigator.er.usgs.gov\/browse\/node\/1719249" }, "geometry": { "type": "Point", "coordinates": [ -76.85221, 41.019950000000101, 0.0 ] } },
{ "type": "Feature", "properties": { "Name": "Scott Township Police Dept", "Description": "http:\/\/navigator.er.usgs.gov\/browse\/node\/1719267" }, "geometry": { "type": "Point", "coordinates": [ -80.33107, 40.98627, 0.0 ] } },
{ "type": "Feature", "properties": { "Name": "Rockledge Borough Police", "Description": "http:\/\/navigator.er.usgs.gov\/browse\/node\/1719270" }, "geometry": { "type": "Point", "coordinates": [ -75.08898, 40.08232, 0.0 ] } },
{ "type": "Feature", "properties": { "Name": "Jackson Twp Police Dept", "Description": "http:\/\/navigator.er.usgs.gov\/browse\/node\/1719274" }, "geometry": { "type": "Point", "coordinates": [ -78.83923, 40.4444, 0.0 ] } },
{ "type": "Feature", "properties": { "Name": "Lycoming County Sheriff", "Description": "http:\/\/navigator.er.usgs.gov\/browse\/node\/1719281" }, "geometry": { "type": "Point", "coordinates": [ -77.00211, 41.24064, 0.0 ] } },
{ "type": "Feature", "properties": { "Name": "Crescent Township Police Dept", "Description": "http:\/\/navigator.er.usgs.gov\/browse\/node\/1719285" }, "geometry": { "type": "Point", "coordinates": [ -80.21994, 40.5583, 0.0 ] } },
{ "type": "Feature", "properties": { "Name": "Lower Moreland Police Dept", "Description": "http:\/\/navigator.er.usgs.gov\/browse\/node\/1719306" }, "geometry": { "type": "Point", "coordinates": [ -75.0618, 40.12458, 0.0 ] } },
{ "type": "Feature", "properties": { "Name": "Cleona Police Dept", "Description": "http:\/\/navigator.er.usgs.gov\/browse\/node\/1719318" }, "geometry": { "type": "Point", "coordinates": [ -76.47754, 40.3351, 0.0 ] } },
{ "type": "Feature", "properties": { "Name": "Canonsburg Police Office", "Description": "http:\/\/navigator.er.usgs.gov\/browse\/node\/1719344" }, "geometry": { "type": "Point", "coordinates": [ -80.18368, 40.25004, 0.0 ] } },
{ "type": "Feature", "properties": { "Name": "Coal Township Police Dept", "Description": "http:\/\/navigator.er.usgs.gov\/browse\/node\/1719348" }, "geometry": { "type": "Point", "coordinates": [ -76.56584, 40.78818, 0.0 ] } },
{ "type": "Feature", "properties": { "Name": "Tionesta Police Department", "Description": "http:\/\/navigator.er.usgs.gov\/browse\/node\/1719355" }, "geometry": { "type": "Point", "coordinates": [ -79.42705, 41.45977, 0.0 ] } },
{ "type": "Feature", "properties": { "Name": "West Hempfield Twp Police Dept", "Description": "http:\/\/navigator.er.usgs.gov\/browse\/node\/1719357" }, "geometry": { "type": "Point", "coordinates": [ -76.41744, 40.060720000000103, 0.0 ] } },
{ "type": "Feature", "properties": { "Name": "Robinson Twp Police Dept", "Description": "http:\/\/navigator.er.usgs.gov\/browse\/node\/1719362" }, "geometry": { "type": "Point", "coordinates": [ -80.14014, 40.43325, 0.0 ] } },
{ "type": "Feature", "properties": { "Name": "Franklin Police Dept", "Description": "http:\/\/navigator.er.usgs.gov\/browse\/node\/1719369" }, "geometry": { "type": "Point", "coordinates": [ -75.68705, 40.84313, 0.0 ] } },
{ "type": "Feature", "properties": { "Name": "Newport Police Dept", "Description": "http:\/\/navigator.er.usgs.gov\/browse\/node\/1719374" }, "geometry": { "type": "Point", "coordinates": [ -77.131169999999898, 40.4775500000001, 0.0 ] } },
{ "type": "Feature", "properties": { "Name": "Tilden Twp Police", "Description": "http:\/\/navigator.er.usgs.gov\/browse\/node\/1719384" }, "geometry": { "type": "Point", "coordinates": [ -75.97736, 40.57058, 0.0 ] } },
{ "type": "Feature", "properties": { "Name": "Northampton Police Dept", "Description": "http:\/\/navigator.er.usgs.gov\/browse\/node\/1719389" }, "geometry": { "type": "Point", "coordinates": [ -75.001779999999897, 40.212850000000103, 0.0 ] } },
{ "type": "Feature", "properties": { "Name": "Muhlenberg Twp Police Office", "Description": "http:\/\/navigator.er.usgs.gov\/browse\/node\/1719399" }, "geometry": { "type": "Point", "coordinates": [ -75.92545, 40.377490000000101, 0.0 ] } },
{ "type": "Feature", "properties": { "Name": "Lower Burrell Chief Of Police", "Description": "http:\/\/navigator.er.usgs.gov\/browse\/node\/1719403" }, "geometry": { "type": "Point", "coordinates": [ -79.72896, 40.58589, 0.0 ] } },
{ "type": "Feature", "properties": { "Name": "Colebrookdale District Police", "Description": "http:\/\/navigator.er.usgs.gov\/browse\/node\/1719415" }, "geometry": { "type": "Point", "coordinates": [ -75.66472, 40.35576, 0.0 ] } },
{ "type": "Feature", "properties": { "Name": "Wyomissing Hills Police Dept", "Description": "http:\/\/navigator.er.usgs.gov\/browse\/node\/1719416" }, "geometry": { "type": "Point", "coordinates": [ -75.98198, 40.33009, 0.0 ] } },
{ "type": "Feature", "properties": { "Name": "Throop Boro Police", "Description": "http:\/\/navigator.er.usgs.gov\/browse\/node\/1719433" }, "geometry": { "type": "Point", "coordinates": [ -75.62088, 41.44633, 0.0 ] } },
{ "type": "Feature", "properties": { "Name": "Jim Thorpe Police Station", "Description": "http:\/\/navigator.er.usgs.gov\/browse\/node\/1719439" }, "geometry": { "type": "Point", "coordinates": [ -75.73406, 40.87385, 0.0 ] } },
{ "type": "Feature", "properties": { "Name": "Schwenksville Boro Police Ofc", "Description": "http:\/\/navigator.er.usgs.gov\/browse\/node\/1719444" }, "geometry": { "type": "Point", "coordinates": [ -75.45768, 40.24724, 0.0 ] } },
{ "type": "Feature", "properties": { "Name": "Pennsylvania State Police", "Description": "http:\/\/navigator.er.usgs.gov\/browse\/node\/1719462" }, "geometry": { "type": "Point", "coordinates": [ -76.55364, 40.78798, 0.0 ] } },
{ "type": "Feature", "properties": { "Name": "Alburtis Police Dept", "Description": "http:\/\/navigator.er.usgs.gov\/browse\/node\/1719464" }, "geometry": { "type": "Point", "coordinates": [ -75.60186, 40.51009, 0.0 ] } },
{ "type": "Feature", "properties": { "Name": "Horsham Twp Police Dept", "Description": "http:\/\/navigator.er.usgs.gov\/browse\/node\/1719480" }, "geometry": { "type": "Point", "coordinates": [ -75.17413, 40.20514, 0.0 ] } },
{ "type": "Feature", "properties": { "Name": "Masontown Borough Police", "Description": "http:\/\/navigator.er.usgs.gov\/browse\/node\/1719493" }, "geometry": { "type": "Point", "coordinates": [ -79.9, 39.848770000000101, 0.0 ] } },
{ "type": "Feature", "properties": { "Name": "Bedford County Sheriff", "Description": "http:\/\/navigator.er.usgs.gov\/browse\/node\/1719500" }, "geometry": { "type": "Point", "coordinates": [ -78.49198, 40.11597, 0.0 ] } },
{ "type": "Feature", "properties": { "Name": "Olyphant Police Dept", "Description": "http:\/\/navigator.er.usgs.gov\/browse\/node\/1719508" }, "geometry": { "type": "Point", "coordinates": [ -75.60485, 41.46998, 0.0 ] } },
{ "type": "Feature", "properties": { "Name": "Archbald Police Dept", "Description": "http:\/\/navigator.er.usgs.gov\/browse\/node\/1719511" }, "geometry": { "type": "Point", "coordinates": [ -75.568669999999898, 41.491640000000103, 0.0 ] } },
{ "type": "Feature", "properties": { "Name": "Shohola Township Police Dept", "Description": "http:\/\/navigator.er.usgs.gov\/browse\/node\/1719514" }, "geometry": { "type": "Point", "coordinates": [ -74.92696, 41.41222, 0.0 ] } },
{ "type": "Feature", "properties": { "Name": "Ralpho Township Police Dept", "Description": "http:\/\/navigator.er.usgs.gov\/browse\/node\/1719515" }, "geometry": { "type": "Point", "coordinates": [ -76.551019999999895, 40.86342, 0.0 ] } },
{ "type": "Feature", "properties": { "Name": "Buckingham Township Police", "Description": "http:\/\/navigator.er.usgs.gov\/browse\/node\/1719516" }, "geometry": { "type": "Point", "coordinates": [ -75.06161, 40.32255, 0.0 ] } },
{ "type": "Feature", "properties": { "Name": "South Beaver Police Dept", "Description": "http:\/\/navigator.er.usgs.gov\/browse\/node\/1719524" }, "geometry": { "type": "Point", "coordinates": [ -80.420659999999899, 40.758040000000101, 0.0 ] } },
{ "type": "Feature", "properties": { "Name": "Point Marion Police Dept", "Description": "http:\/\/navigator.er.usgs.gov\/browse\/node\/1719528" }, "geometry": { "type": "Point", "coordinates": [ -79.89893, 39.73838, 0.0 ] } },
{ "type": "Feature", "properties": { "Name": "Upper Merion Twp Police Record", "Description": "http:\/\/navigator.er.usgs.gov\/browse\/node\/1719532" }, "geometry": { "type": "Point", "coordinates": [ -75.37195, 40.10259, 0.0 ] } },
{ "type": "Feature", "properties": { "Name": "Sharon Police Dept", "Description": "http:\/\/navigator.er.usgs.gov\/browse\/node\/1719535" }, "geometry": { "type": "Point", "coordinates": [ -80.51226, 41.23021, 0.0 ] } },
{ "type": "Feature", "properties": { "Name": "Williamsport Police Station", "Description": "http:\/\/navigator.er.usgs.gov\/browse\/node\/1719553" }, "geometry": { "type": "Point", "coordinates": [ -77.06862, 41.23704, 0.0 ] } },
{ "type": "Feature", "properties": { "Name": "Pittsburgh Police Station", "Description": "http:\/\/navigator.er.usgs.gov\/browse\/node\/1719570" }, "geometry": { "type": "Point", "coordinates": [ -79.89354, 40.4568, 0.0 ] } },
{ "type": "Feature", "properties": { "Name": "Chester Twp Police Dept", "Description": "http:\/\/navigator.er.usgs.gov\/browse\/node\/1719604" }, "geometry": { "type": "Point", "coordinates": [ -75.38925, 39.8454, 0.0 ] } },
{ "type": "Feature", "properties": { "Name": "South Londonderry Police", "Description": "http:\/\/navigator.er.usgs.gov\/browse\/node\/1719606" }, "geometry": { "type": "Point", "coordinates": [ -76.59489, 40.307200000000101, 0.0 ] } },
{ "type": "Feature", "properties": { "Name": "Clearfield Police Dept", "Description": "http:\/\/navigator.er.usgs.gov\/browse\/node\/1719614" }, "geometry": { "type": "Point", "coordinates": [ -78.43977, 41.021810000000102, 0.0 ] } },
{ "type": "Feature", "properties": { "Name": "Murrysville Police Dept", "Description": "http:\/\/navigator.er.usgs.gov\/browse\/node\/1719624" }, "geometry": { "type": "Point", "coordinates": [ -79.67158, 40.45007, 0.0 ] } },
{ "type": "Feature", "properties": { "Name": "Old Lycoming Police Dept", "Description": "http:\/\/navigator.er.usgs.gov\/browse\/node\/1719627" }, "geometry": { "type": "Point", "coordinates": [ -77.04504, 41.25771, 0.0 ] } },
{ "type": "Feature", "properties": { "Name": "Port Carbon Police Dept", "Description": "http:\/\/navigator.er.usgs.gov\/browse\/node\/1719637" }, "geometry": { "type": "Point", "coordinates": [ -76.167509999999893, 40.69683, 0.0 ] } },
{ "type": "Feature", "properties": { "Name": "Police Dept", "Description": "http:\/\/navigator.er.usgs.gov\/browse\/node\/1719646" }, "geometry": { "type": "Point", "coordinates": [ -76.02032, 40.32534, 0.0 ] } },
{ "type": "Feature", "properties": { "Name": "Turtle Creek Boro Police Dept", "Description": "http:\/\/navigator.er.usgs.gov\/browse\/node\/1719647" }, "geometry": { "type": "Point", "coordinates": [ -79.82488, 40.40493, 0.0 ] } },
{ "type": "Feature", "properties": { "Name": "Monroeville Police Dept", "Description": "http:\/\/navigator.er.usgs.gov\/browse\/node\/1719659" }, "geometry": { "type": "Point", "coordinates": [ -79.78314, 40.43445, 0.0 ] } },
{ "type": "Feature", "properties": { "Name": "Telford Police Dept", "Description": "http:\/\/navigator.er.usgs.gov\/browse\/node\/1719663" }, "geometry": { "type": "Point", "coordinates": [ -75.3293, 40.32462, 0.0 ] } },
{ "type": "Feature", "properties": { "Name": "Aldan Police Adm", "Description": "http:\/\/navigator.er.usgs.gov\/browse\/node\/1719664" }, "geometry": { "type": "Point", "coordinates": [ -75.28713, 39.92229, 0.0 ] } },
{ "type": "Feature", "properties": { "Name": "Jessup Boro Police Dept", "Description": "http:\/\/navigator.er.usgs.gov\/browse\/node\/1719667" }, "geometry": { "type": "Point", "coordinates": [ -75.57164, 41.470170000000103, 0.0 ] } },
{ "type": "Feature", "properties": { "Name": "Connellsville Police Dept", "Description": "http:\/\/navigator.er.usgs.gov\/browse\/node\/1719682" }, "geometry": { "type": "Point", "coordinates": [ -79.59135, 40.0176200000001, 0.0 ] } },
{ "type": "Feature", "properties": { "Name": "Kutztown Police Dept", "Description": "http:\/\/navigator.er.usgs.gov\/browse\/node\/1719703" }, "geometry": { "type": "Point", "coordinates": [ -75.77528, 40.520780000000101, 0.0 ] } },
{ "type": "Feature", "properties": { "Name": "Marysville Police Dept", "Description": "http:\/\/navigator.er.usgs.gov\/browse\/node\/1719711" }, "geometry": { "type": "Point", "coordinates": [ -76.9385, 40.3404, 0.0 ] } },
{ "type": "Feature", "properties": { "Name": "Upper Yoder Twp Police", "Description": "http:\/\/navigator.er.usgs.gov\/browse\/node\/1719714" }, "geometry": { "type": "Point", "coordinates": [ -78.93656, 40.30429, 0.0 ] } },
{ "type": "Feature", "properties": { "Name": "Leet Twp Police Dept", "Description": "http:\/\/navigator.er.usgs.gov\/browse\/node\/1719718" }, "geometry": { "type": "Point", "coordinates": [ -80.21354, 40.580570000000101, 0.0 ] } },
{ "type": "Feature", "properties": { "Name": "Butler Twp Police Dept", "Description": "http:\/\/navigator.er.usgs.gov\/browse\/node\/1719727" }, "geometry": { "type": "Point", "coordinates": [ -75.99741, 41.01786, 0.0 ] } },
{ "type": "Feature", "properties": { "Name": "Farrell Police Dept", "Description": "http:\/\/navigator.er.usgs.gov\/browse\/node\/1719742" }, "geometry": { "type": "Point", "coordinates": [ -80.50244, 41.21191, 0.0 ] } },
{ "type": "Feature", "properties": { "Name": "Matamoras Police Chief", "Description": "http:\/\/navigator.er.usgs.gov\/browse\/node\/1719744" }, "geometry": { "type": "Point", "coordinates": [ -74.69972, 41.37163, 0.0 ] } },
{ "type": "Feature", "properties": { "Name": "Whitehall Twp Police Dept", "Description": "http:\/\/navigator.er.usgs.gov\/browse\/node\/1719775" }, "geometry": { "type": "Point", "coordinates": [ -75.4809, 40.64729, 0.0 ] } },
{ "type": "Feature", "properties": { "Name": "Allentown Police Dept", "Description": "http:\/\/navigator.er.usgs.gov\/browse\/node\/1719785" }, "geometry": { "type": "Point", "coordinates": [ -75.44755, 40.60821, 0.0 ] } },
{ "type": "Feature", "properties": { "Name": "Norwegian Police Dept", "Description": "http:\/\/navigator.er.usgs.gov\/browse\/node\/1719794" }, "geometry": { "type": "Point", "coordinates": [ -76.24512, 40.678530000000102, 0.0 ] } },
{ "type": "Feature", "properties": { "Name": "North Cornwall Twp Police Dept", "Description": "http:\/\/navigator.er.usgs.gov\/browse\/node\/1719810" }, "geometry": { "type": "Point", "coordinates": [ -76.44146, 40.334240000000101, 0.0 ] } },
{ "type": "Feature", "properties": { "Name": "Saxonburg Borough Police", "Description": "http:\/\/navigator.er.usgs.gov\/browse\/node\/1719814" }, "geometry": { "type": "Point", "coordinates": [ -79.81102, 40.75051, 0.0 ] } },
{ "type": "Feature", "properties": { "Name": "Swarthmore Boro Police Dept", "Description": "http:\/\/navigator.er.usgs.gov\/browse\/node\/1719819" }, "geometry": { "type": "Point", "coordinates": [ -75.34816, 39.90097, 0.0 ] } },
{ "type": "Feature", "properties": { "Name": "Center Twp Police Dept", "Description": "http:\/\/navigator.er.usgs.gov\/browse\/node\/1719828" }, "geometry": { "type": "Point", "coordinates": [ -80.30216, 40.6479, 0.0 ] } },
{ "type": "Feature", "properties": { "Name": "Middlesex Police Dept", "Description": "http:\/\/navigator.er.usgs.gov\/browse\/node\/1719833" }, "geometry": { "type": "Point", "coordinates": [ -79.92669, 40.712470000000103, 0.0 ] } },
{ "type": "Feature", "properties": { "Name": "Hatboro Police Dept", "Description": "http:\/\/navigator.er.usgs.gov\/browse\/node\/1719834" }, "geometry": { "type": "Point", "coordinates": [ -75.10247, 40.17839, 0.0 ] } },
{ "type": "Feature", "properties": { "Name": "Whitemarsh Twp Police Dept", "Description": "http:\/\/navigator.er.usgs.gov\/browse\/node\/1719836" }, "geometry": { "type": "Point", "coordinates": [ -75.25417, 40.08781, 0.0 ] } },
{ "type": "Feature", "properties": { "Name": "Cornwall Boro Police", "Description": "http:\/\/navigator.er.usgs.gov\/browse\/node\/1719845" }, "geometry": { "type": "Point", "coordinates": [ -76.47399, 40.33795, 0.0 ] } },
{ "type": "Feature", "properties": { "Name": "Pittsburgh Police Station", "Description": "http:\/\/navigator.er.usgs.gov\/browse\/node\/1719864" }, "geometry": { "type": "Point", "coordinates": [ -79.86662, 40.4550300000001, 0.0 ] } },
{ "type": "Feature", "properties": { "Name": "Cumru Twp Police Dept", "Description": "http:\/\/navigator.er.usgs.gov\/browse\/node\/1719865" }, "geometry": { "type": "Point", "coordinates": [ -75.97002, 40.279580000000102, 0.0 ] } },
{ "type": "Feature", "properties": { "Name": "Manor Police Dept", "Description": "http:\/\/navigator.er.usgs.gov\/browse\/node\/1719869" }, "geometry": { "type": "Point", "coordinates": [ -79.66918, 40.33273, 0.0 ] } },
{ "type": "Feature", "properties": { "Name": "Springfield Twp Police Bureau", "Description": "http:\/\/navigator.er.usgs.gov\/browse\/node\/1719873" }, "geometry": { "type": "Point", "coordinates": [ -75.32862, 39.93067, 0.0 ] } },
{ "type": "Feature", "properties": { "Name": "North Fayette Twp Police", "Description": "http:\/\/navigator.er.usgs.gov\/browse\/node\/1719883" }, "geometry": { "type": "Point", "coordinates": [ -80.20203, 40.41896, 0.0 ] } },
{ "type": "Feature", "properties": { "Name": "Lititz Police Admin", "Description": "http:\/\/navigator.er.usgs.gov\/browse\/node\/1719891" }, "geometry": { "type": "Point", "coordinates": [ -76.307119999999898, 40.15693, 0.0 ] } },
{ "type": "Feature", "properties": { "Name": "Media Borough Police Dept", "Description": "http:\/\/navigator.er.usgs.gov\/browse\/node\/1719896" }, "geometry": { "type": "Point", "coordinates": [ -75.38875, 39.92077, 0.0 ] } },
{ "type": "Feature", "properties": { "Name": "Williamsburg Boro Police Dept", "Description": "http:\/\/navigator.er.usgs.gov\/browse\/node\/1719897" }, "geometry": { "type": "Point", "coordinates": [ -78.20031, 40.46086, 0.0 ] } },
{ "type": "Feature", "properties": { "Name": "Spring Twp Police", "Description": "http:\/\/navigator.er.usgs.gov\/browse\/node\/1719904" }, "geometry": { "type": "Point", "coordinates": [ -76.00701, 40.31944, 0.0 ] } },
{ "type": "Feature", "properties": { "Name": "Nicholson Boro Police Dept", "Description": "http:\/\/navigator.er.usgs.gov\/browse\/node\/1719909" }, "geometry": { "type": "Point", "coordinates": [ -75.78071, 41.62643, 0.0 ] } },
{ "type": "Feature", "properties": { "Name": "Wilkes Barre Police Dept", "Description": "http:\/\/navigator.er.usgs.gov\/browse\/node\/1719925" }, "geometry": { "type": "Point", "coordinates": [ -75.8708, 41.227240000000101, 0.0 ] } },
{ "type": "Feature", "properties": { "Name": "Huntingdon Boro Police Dept", "Description": "http:\/\/navigator.er.usgs.gov\/browse\/node\/1719935" }, "geometry": { "type": "Point", "coordinates": [ -78.01116, 40.48526, 0.0 ] } },
{ "type": "Feature", "properties": { "Name": "Northampton Borough Police Dpt", "Description": "http:\/\/navigator.er.usgs.gov\/browse\/node\/1719970" }, "geometry": { "type": "Point", "coordinates": [ -75.491039999999899, 40.68355, 0.0 ] } },
{ "type": "Feature", "properties": { "Name": "Duncansville Police Dept", "Description": "http:\/\/navigator.er.usgs.gov\/browse\/node\/1719982" }, "geometry": { "type": "Point", "coordinates": [ -78.43174, 40.42389, 0.0 ] } },
{ "type": "Feature", "properties": { "Name": "Bern Township Police Dept", "Description": "http:\/\/navigator.er.usgs.gov\/browse\/node\/1719995" }, "geometry": { "type": "Point", "coordinates": [ -75.99162, 40.39025, 0.0 ] } },
{ "type": "Feature", "properties": { "Name": "Millersville Boro Police Dept", "Description": "http:\/\/navigator.er.usgs.gov\/browse\/node\/1720012" }, "geometry": { "type": "Point", "coordinates": [ -76.35822, 40.00717, 0.0 ] } },
{ "type": "Feature", "properties": { "Name": "Walnutport Police Dept", "Description": "http:\/\/navigator.er.usgs.gov\/browse\/node\/1720020" }, "geometry": { "type": "Point", "coordinates": [ -75.59475, 40.75223, 0.0 ] } },
{ "type": "Feature", "properties": { "Name": "Springfield Twp Police Hdqtrs", "Description": "http:\/\/navigator.er.usgs.gov\/browse\/node\/1720023" }, "geometry": { "type": "Point", "coordinates": [ -75.19735, 40.0982300000001, 0.0 ] } },
{ "type": "Feature", "properties": { "Name": "Brockway Police Dept", "Description": "http:\/\/navigator.er.usgs.gov\/browse\/node\/1720024" }, "geometry": { "type": "Point", "coordinates": [ -78.79892, 41.24911, 0.0 ] } },
{ "type": "Feature", "properties": { "Name": "Dale Borough Police Dept", "Description": "http:\/\/navigator.er.usgs.gov\/browse\/node\/1720038" }, "geometry": { "type": "Point", "coordinates": [ -78.90219, 40.31041, 0.0 ] } },
{ "type": "Feature", "properties": { "Name": "Indiana County Sheriff", "Description": "http:\/\/navigator.er.usgs.gov\/browse\/node\/1720041" }, "geometry": { "type": "Point", "coordinates": [ -79.15498, 40.62287, 0.0 ] } },
{ "type": "Feature", "properties": { "Name": "Baden Police Dept", "Description": "http:\/\/navigator.er.usgs.gov\/browse\/node\/1720047" }, "geometry": { "type": "Point", "coordinates": [ -80.22641, 40.629190000000101, 0.0 ] } },
{ "type": "Feature", "properties": { "Name": "Chester Hill Borough Police", "Description": "http:\/\/navigator.er.usgs.gov\/browse\/node\/1720073" }, "geometry": { "type": "Point", "coordinates": [ -78.22975, 40.888820000000102, 0.0 ] } },
{ "type": "Feature", "properties": { "Name": "Upper Providence Twp Police", "Description": "http:\/\/navigator.er.usgs.gov\/browse\/node\/1720078" }, "geometry": { "type": "Point", "coordinates": [ -75.38766, 39.93049, 0.0 ] } },
{ "type": "Feature", "properties": { "Name": "East Earl Township Police", "Description": "http:\/\/navigator.er.usgs.gov\/browse\/node\/1720082" }, "geometry": { "type": "Point", "coordinates": [ -76.00642, 40.10975, 0.0 ] } },
{ "type": "Feature", "properties": { "Name": "Point Twp Police Dept", "Description": "http:\/\/navigator.er.usgs.gov\/browse\/node\/1720088" }, "geometry": { "type": "Point", "coordinates": [ -76.79509, 40.904670000000102, 0.0 ] } },
{ "type": "Feature", "properties": { "Name": "Cressona Police Dept", "Description": "http:\/\/navigator.er.usgs.gov\/browse\/node\/1720092" }, "geometry": { "type": "Point", "coordinates": [ -76.19413, 40.63084, 0.0 ] } },
{ "type": "Feature", "properties": { "Name": "Everett Police Adm", "Description": "http:\/\/navigator.er.usgs.gov\/browse\/node\/1720093" }, "geometry": { "type": "Point", "coordinates": [ -78.375, 40.01146, 0.0 ] } },
{ "type": "Feature", "properties": { "Name": "Green Lane Police Dept", "Description": "http:\/\/navigator.er.usgs.gov\/browse\/node\/1720120" }, "geometry": { "type": "Point", "coordinates": [ -75.401929999999894, 40.23364, 0.0 ] } },
{ "type": "Feature", "properties": { "Name": "Allentown Police Dept", "Description": "http:\/\/navigator.er.usgs.gov\/browse\/node\/1720154" }, "geometry": { "type": "Point", "coordinates": [ -75.47667, 40.60711, 0.0 ] } },
{ "type": "Feature", "properties": { "Name": "Bushkill Twp Police Dept", "Description": "http:\/\/navigator.er.usgs.gov\/browse\/node\/1720161" }, "geometry": { "type": "Point", "coordinates": [ -75.3378, 40.8012200000001, 0.0 ] } },
{ "type": "Feature", "properties": { "Name": "Allegheny Police Dept", "Description": "http:\/\/navigator.er.usgs.gov\/browse\/node\/1720163" }, "geometry": { "type": "Point", "coordinates": [ -80.21408, 40.497880000000102, 0.0 ] } },
{ "type": "Feature", "properties": { "Name": "Greencastle Police Dept", "Description": "http:\/\/navigator.er.usgs.gov\/browse\/node\/1720171" }, "geometry": { "type": "Point", "coordinates": [ -77.72553, 39.79049, 0.0 ] } },
{ "type": "Feature", "properties": { "Name": "Greene County Sheriff", "Description": "http:\/\/navigator.er.usgs.gov\/browse\/node\/1720187" }, "geometry": { "type": "Point", "coordinates": [ -80.18652, 39.89653, 0.0 ] } },
{ "type": "Feature", "properties": { "Name": "Montgomery Boro Police", "Description": "http:\/\/navigator.er.usgs.gov\/browse\/node\/1720197" }, "geometry": { "type": "Point", "coordinates": [ -76.87608, 41.1697, 0.0 ] } },
{ "type": "Feature", "properties": { "Name": "Allegheny Police", "Description": "http:\/\/navigator.er.usgs.gov\/browse\/node\/1720199" }, "geometry": { "type": "Point", "coordinates": [ -79.61077, 40.610030000000101, 0.0 ] } },
{ "type": "Feature", "properties": { "Name": "Washington Twp Police Dept", "Description": "http:\/\/navigator.er.usgs.gov\/browse\/node\/1720219" }, "geometry": { "type": "Point", "coordinates": [ -77.556939999999898, 39.742550000000101, 0.0 ] } },
{ "type": "Feature", "properties": { "Name": "Hempfield Twp Police Dept", "Description": "http:\/\/navigator.er.usgs.gov\/browse\/node\/1720222" }, "geometry": { "type": "Point", "coordinates": [ -80.37246, 41.393700000000102, 0.0 ] } },
{ "type": "Feature", "properties": { "Name": "Franklin Twp Police Dept", "Description": "http:\/\/navigator.er.usgs.gov\/browse\/node\/1720239" }, "geometry": { "type": "Point", "coordinates": [ -79.917599999999894, 40.904130000000102, 0.0 ] } },
{ "type": "Feature", "properties": { "Name": "Schuylkill Twp Police Dept", "Description": "http:\/\/navigator.er.usgs.gov\/browse\/node\/1720264" }, "geometry": { "type": "Point", "coordinates": [ -76.05609, 40.760080000000102, 0.0 ] } },
{ "type": "Feature", "properties": { "Name": "Allentown Police Dept", "Description": "http:\/\/navigator.er.usgs.gov\/browse\/node\/1720291" }, "geometry": { "type": "Point", "coordinates": [ -75.48845, 40.61049, 0.0 ] } },
{ "type": "Feature", "properties": { "Name": "Castle Shannon Police Dept", "Description": "http:\/\/navigator.er.usgs.gov\/browse\/node\/1720304" }, "geometry": { "type": "Point", "coordinates": [ -80.008579999999895, 40.3675700000001, 0.0 ] } },
{ "type": "Feature", "properties": { "Name": "Franconia Twp Police Dept", "Description": "http:\/\/navigator.er.usgs.gov\/browse\/node\/1720306" }, "geometry": { "type": "Point", "coordinates": [ -75.34865, 40.299550000000103, 0.0 ] } },
{ "type": "Feature", "properties": { "Name": "Coplay Police Dept", "Description": "http:\/\/navigator.er.usgs.gov\/browse\/node\/1720313" }, "geometry": { "type": "Point", "coordinates": [ -75.49169, 40.670000000000101, 0.0 ] } },
{ "type": "Feature", "properties": { "Name": "Cameron County Sheriff's Ofc", "Description": "http:\/\/navigator.er.usgs.gov\/browse\/node\/1720335" }, "geometry": { "type": "Point", "coordinates": [ -78.23739, 41.51259, 0.0 ] } },
{ "type": "Feature", "properties": { "Name": "Sunbury Police Dept", "Description": "http:\/\/navigator.er.usgs.gov\/browse\/node\/1720337" }, "geometry": { "type": "Point", "coordinates": [ -76.79428, 40.861870000000103, 0.0 ] } },
{ "type": "Feature", "properties": { "Name": "Central Berks Regional Police", "Description": "http:\/\/navigator.er.usgs.gov\/browse\/node\/1720366" }, "geometry": { "type": "Point", "coordinates": [ -75.880089999999896, 40.337510000000101, 0.0 ] } },
{ "type": "Feature", "properties": { "Name": "Pittsburgh Police Station", "Description": "http:\/\/navigator.er.usgs.gov\/browse\/node\/1720368" }, "geometry": { "type": "Point", "coordinates": [ -79.93824, 40.4659, 0.0 ] } },
{ "type": "Feature", "properties": { "Name": "Marion Twp Police Dept", "Description": "http:\/\/navigator.er.usgs.gov\/browse\/node\/1720370" }, "geometry": { "type": "Point", "coordinates": [ -76.18162, 40.36308, 0.0 ] } },
{ "type": "Feature", "properties": { "Name": "Beaver Falls Police Dept", "Description": "http:\/\/navigator.er.usgs.gov\/browse\/node\/1720371" }, "geometry": { "type": "Point", "coordinates": [ -80.31972, 40.755960000000101, 0.0 ] } },
{ "type": "Feature", "properties": { "Name": "Neshannock Township Police", "Description": "http:\/\/navigator.er.usgs.gov\/browse\/node\/1720376" }, "geometry": { "type": "Point", "coordinates": [ -80.33394, 41.04992, 0.0 ] } },
{ "type": "Feature", "properties": { "Name": "Warrington Twp Police Dept", "Description": "http:\/\/navigator.er.usgs.gov\/browse\/node\/1720378" }, "geometry": { "type": "Point", "coordinates": [ -75.13683, 40.23605, 0.0 ] } },
{ "type": "Feature", "properties": { "Name": "Elk County Sheriff's Office", "Description": "http:\/\/navigator.er.usgs.gov\/browse\/node\/1720386" }, "geometry": { "type": "Point", "coordinates": [ -78.73167, 41.4268700000001, 0.0 ] } },
{ "type": "Feature", "properties": { "Name": "Catasauqua Police Office", "Description": "http:\/\/navigator.er.usgs.gov\/browse\/node\/1720394" }, "geometry": { "type": "Point", "coordinates": [ -75.474199999999897, 40.65376, 0.0 ] } },
{ "type": "Feature", "properties": { "Name": "Mount Carmel Police Dept", "Description": "http:\/\/navigator.er.usgs.gov\/browse\/node\/1720407" }, "geometry": { "type": "Point", "coordinates": [ -76.41309, 40.79542, 0.0 ] } },
{ "type": "Feature", "properties": { "Name": "Slippery Rock Chief Of Police", "Description": "http:\/\/navigator.er.usgs.gov\/browse\/node\/1720409" }, "geometry": { "type": "Point", "coordinates": [ -80.05448, 41.06681, 0.0 ] } },
{ "type": "Feature", "properties": { "Name": "Aliquippa Police Dept", "Description": "http:\/\/navigator.er.usgs.gov\/browse\/node\/1720411" }, "geometry": { "type": "Point", "coordinates": [ -80.24948, 40.61476, 0.0 ] } },
{ "type": "Feature", "properties": { "Name": "Taylor Boro Police", "Description": "http:\/\/navigator.er.usgs.gov\/browse\/node\/1720437" }, "geometry": { "type": "Point", "coordinates": [ -75.70977, 41.384300000000103, 0.0 ] } },
{ "type": "Feature", "properties": { "Name": "Lehigh Township Police", "Description": "http:\/\/navigator.er.usgs.gov\/browse\/node\/1720448" }, "geometry": { "type": "Point", "coordinates": [ -75.4894, 41.25114, 0.0 ] } },
{ "type": "Feature", "properties": { "Name": "North Huntingdon Twp Police", "Description": "http:\/\/navigator.er.usgs.gov\/browse\/node\/1720467" }, "geometry": { "type": "Point", "coordinates": [ -79.72842, 40.32962, 0.0 ] } },
{ "type": "Feature", "properties": { "Name": "Meyersdale Boro Police Dept", "Description": "http:\/\/navigator.er.usgs.gov\/browse\/node\/1720477" }, "geometry": { "type": "Point", "coordinates": [ -79.02537, 39.81395, 0.0 ] } },
{ "type": "Feature", "properties": { "Name": "Cambria Township Police Dept", "Description": "http:\/\/navigator.er.usgs.gov\/browse\/node\/1720497" }, "geometry": { "type": "Point", "coordinates": [ -78.74175, 40.50033, 0.0 ] } },
{ "type": "Feature", "properties": { "Name": "Honesdale Police Dept", "Description": "http:\/\/navigator.er.usgs.gov\/browse\/node\/1720510" }, "geometry": { "type": "Point", "coordinates": [ -75.25651, 41.57415, 0.0 ] } },
{ "type": "Feature", "properties": { "Name": "West Hazleton Police Hdqtrs", "Description": "http:\/\/navigator.er.usgs.gov\/browse\/node\/1720515" }, "geometry": { "type": "Point", "coordinates": [ -75.99247, 40.95775, 0.0 ] } },
{ "type": "Feature", "properties": { "Name": "New Britain Twp Police Dept", "Description": "http:\/\/navigator.er.usgs.gov\/browse\/node\/1720525" }, "geometry": { "type": "Point", "coordinates": [ -75.20408, 40.2945500000001, 0.0 ] } },
{ "type": "Feature", "properties": { "Name": "North Londonderry Police Adm", "Description": "http:\/\/navigator.er.usgs.gov\/browse\/node\/1720526" }, "geometry": { "type": "Point", "coordinates": [ -76.59464, 40.321550000000101, 0.0 ] } },
{ "type": "Feature", "properties": { "Name": "Rochester Twp Police Dept", "Description": "http:\/\/navigator.er.usgs.gov\/browse\/node\/1720529" }, "geometry": { "type": "Point", "coordinates": [ -80.28515, 40.713320000000103, 0.0 ] } },
{ "type": "Feature", "properties": { "Name": "Braddock Hills Police Dept", "Description": "http:\/\/navigator.er.usgs.gov\/browse\/node\/1720548" }, "geometry": { "type": "Point", "coordinates": [ -79.868089999999896, 40.423540000000102, 0.0 ] } },
{ "type": "Feature", "properties": { "Name": "Constable Of Telford Borough", "Description": "http:\/\/navigator.er.usgs.gov\/browse\/node\/1720550" }, "geometry": { "type": "Point", "coordinates": [ -75.34953, 40.32451, 0.0 ] } },
{ "type": "Feature", "properties": { "Name": "White Twp Police Dept", "Description": "http:\/\/navigator.er.usgs.gov\/browse\/node\/1720555" }, "geometry": { "type": "Point", "coordinates": [ -80.34338, 40.76579, 0.0 ] } },
{ "type": "Feature", "properties": { "Name": "Mc Adoo Police", "Description": "http:\/\/navigator.er.usgs.gov\/browse\/node\/1720557" }, "geometry": { "type": "Point", "coordinates": [ -75.9949, 40.9026700000001, 0.0 ] } },
{ "type": "Feature", "properties": { "Name": "Lackawanna County Sheriff", "Description": "http:\/\/navigator.er.usgs.gov\/browse\/node\/1720560" }, "geometry": { "type": "Point", "coordinates": [ -75.663409999999899, 41.408090000000101, 0.0 ] } },
{ "type": "Feature", "properties": { "Name": "Elderton Borough Police Dept", "Description": "http:\/\/navigator.er.usgs.gov\/browse\/node\/1720567" }, "geometry": { "type": "Point", "coordinates": [ -79.34054, 40.68996, 0.0 ] } },
{ "type": "Feature", "properties": { "Name": "Lawrence Sheriff's Office", "Description": "http:\/\/navigator.er.usgs.gov\/browse\/node\/1720590" }, "geometry": { "type": "Point", "coordinates": [ -80.33832, 40.99894, 0.0 ] } },
{ "type": "Feature", "properties": { "Name": "Bensalem Twp Police Dept", "Description": "http:\/\/navigator.er.usgs.gov\/browse\/node\/1720594" }, "geometry": { "type": "Point", "coordinates": [ -74.94515, 40.11103, 0.0 ] } },
{ "type": "Feature", "properties": { "Name": "Mohnton Police Dept", "Description": "http:\/\/navigator.er.usgs.gov\/browse\/node\/1720604" }, "geometry": { "type": "Point", "coordinates": [ -75.98821, 40.286270000000101, 0.0 ] } },
{ "type": "Feature", "properties": { "Name": "Police Dept", "Description": "http:\/\/navigator.er.usgs.gov\/browse\/node\/1720605" }, "geometry": { "type": "Point", "coordinates": [ -78.80844, 40.726060000000103, 0.0 ] } },
{ "type": "Feature", "properties": { "Name": "Bethel Park Police Dept", "Description": "http:\/\/navigator.er.usgs.gov\/browse\/node\/1720619" }, "geometry": { "type": "Point", "coordinates": [ -80.03119, 40.33387, 0.0 ] } },
{ "type": "Feature", "properties": { "Name": "Richland Twp Police Dept", "Description": "http:\/\/navigator.er.usgs.gov\/browse\/node\/1720621" }, "geometry": { "type": "Point", "coordinates": [ -79.94651, 40.643480000000103, 0.0 ] } },
{ "type": "Feature", "properties": { "Name": "Bessemer Police Station", "Description": "http:\/\/navigator.er.usgs.gov\/browse\/node\/1720628" }, "geometry": { "type": "Point", "coordinates": [ -80.49416, 40.954360000000101, 0.0 ] } },
{ "type": "Feature", "properties": { "Name": "Cass Twp Police Dept", "Description": "http:\/\/navigator.er.usgs.gov\/browse\/node\/1720646" }, "geometry": { "type": "Point", "coordinates": [ -76.20994, 40.681260000000101, 0.0 ] } },
{ "type": "Feature", "properties": { "Name": "Stockertown Police Dept", "Description": "http:\/\/navigator.er.usgs.gov\/browse\/node\/1720648" }, "geometry": { "type": "Point", "coordinates": [ -75.2644, 40.75724, 0.0 ] } },
{ "type": "Feature", "properties": { "Name": "Buffalo Twp Police Dept", "Description": "http:\/\/navigator.er.usgs.gov\/browse\/node\/1720653" }, "geometry": { "type": "Point", "coordinates": [ -79.72332, 40.70554, 0.0 ] } },
{ "type": "Feature", "properties": { "Name": "New Sewickley Police Dept", "Description": "http:\/\/navigator.er.usgs.gov\/browse\/node\/1720658" }, "geometry": { "type": "Point", "coordinates": [ -80.27141, 40.71389, 0.0 ] } },
{ "type": "Feature", "properties": { "Name": "Aston Township Police Dept", "Description": "http:\/\/navigator.er.usgs.gov\/browse\/node\/1720663" }, "geometry": { "type": "Point", "coordinates": [ -75.4283, 39.86752, 0.0 ] } },
{ "type": "Feature", "properties": { "Name": "Shenango Twp Police Dept", "Description": "http:\/\/navigator.er.usgs.gov\/browse\/node\/1720665" }, "geometry": { "type": "Point", "coordinates": [ -80.31358, 40.973300000000101, 0.0 ] } },
{ "type": "Feature", "properties": { "Name": "Somerset County Sheriff", "Description": "http:\/\/navigator.er.usgs.gov\/browse\/node\/1720685" }, "geometry": { "type": "Point", "coordinates": [ -79.07751, 40.010190000000101, 0.0 ] } },
{ "type": "Feature", "properties": { "Name": "Hollidaysburg Boro Police Dept", "Description": "http:\/\/navigator.er.usgs.gov\/browse\/node\/1720698" }, "geometry": { "type": "Point", "coordinates": [ -78.39203, 40.4278, 0.0 ] } },
{ "type": "Feature", "properties": { "Name": "Westtown East Goshen Police", "Description": "http:\/\/navigator.er.usgs.gov\/browse\/node\/1720712" }, "geometry": { "type": "Point", "coordinates": [ -75.545929999999899, 39.9938000000001, 0.0 ] } },
{ "type": "Feature", "properties": { "Name": "Pittsburgh Police Dept", "Description": "http:\/\/navigator.er.usgs.gov\/browse\/node\/1720721" }, "geometry": { "type": "Point", "coordinates": [ -79.99045, 40.411810000000102, 0.0 ] } },
{ "type": "Feature", "properties": { "Name": "Salisbury Twp Police Adm", "Description": "http:\/\/navigator.er.usgs.gov\/browse\/node\/1720749" }, "geometry": { "type": "Point", "coordinates": [ -75.44868, 40.5634200000001, 0.0 ] } },
{ "type": "Feature", "properties": { "Name": "Ross Township Police", "Description": "http:\/\/navigator.er.usgs.gov\/browse\/node\/1720753" }, "geometry": { "type": "Point", "coordinates": [ -76.13832, 41.2869600000001, 0.0 ] } },
{ "type": "Feature", "properties": { "Name": "Old Forge Boro Police", "Description": "http:\/\/navigator.er.usgs.gov\/browse\/node\/1720763" }, "geometry": { "type": "Point", "coordinates": [ -75.73636, 41.36971, 0.0 ] } },
{ "type": "Feature", "properties": { "Name": "Rankin Boro Police Dept", "Description": "http:\/\/navigator.er.usgs.gov\/browse\/node\/1720766" }, "geometry": { "type": "Point", "coordinates": [ -79.86826, 40.41056, 0.0 ] } },
{ "type": "Feature", "properties": { "Name": "Irwin Chief Of Police", "Description": "http:\/\/navigator.er.usgs.gov\/browse\/node\/1720780" }, "geometry": { "type": "Point", "coordinates": [ -79.71627, 40.32718, 0.0 ] } },
{ "type": "Feature", "properties": { "Name": "Orangeville Borough Police", "Description": "http:\/\/navigator.er.usgs.gov\/browse\/node\/1720785" }, "geometry": { "type": "Point", "coordinates": [ -76.4162522, 41.078065, 0.0 ] } },
{ "type": "Feature", "properties": { "Name": "Police Dept", "Description": "http:\/\/navigator.er.usgs.gov\/browse\/node\/1720812" }, "geometry": { "type": "Point", "coordinates": [ -80.08009, 41.15896, 0.0 ] } },
{ "type": "Feature", "properties": { "Name": "Derry Township Police Dept", "Description": "http:\/\/navigator.er.usgs.gov\/browse\/node\/1720824" }, "geometry": { "type": "Point", "coordinates": [ -77.57551, 40.59813, 0.0 ] } },
{ "type": "Feature", "properties": { "Name": "Koppel Police Dept", "Description": "http:\/\/navigator.er.usgs.gov\/browse\/node\/1720828" }, "geometry": { "type": "Point", "coordinates": [ -80.319569999999899, 40.75172, 0.0 ] } },
{ "type": "Feature", "properties": { "Name": "Doylestown Police Dept", "Description": "http:\/\/navigator.er.usgs.gov\/browse\/node\/1720830" }, "geometry": { "type": "Point", "coordinates": [ -75.13657, 40.2828200000001, 0.0 ] } },
{ "type": "Feature", "properties": { "Name": "Allentown Police Academy", "Description": "http:\/\/navigator.er.usgs.gov\/browse\/node\/1720842" }, "geometry": { "type": "Point", "coordinates": [ -75.49558, 40.57753, 0.0 ] } },
{ "type": "Feature", "properties": { "Name": "Swissvale Boro Police Dept", "Description": "http:\/\/navigator.er.usgs.gov\/browse\/node\/1720849" }, "geometry": { "type": "Point", "coordinates": [ -79.88455, 40.420410000000103, 0.0 ] } },
{ "type": "Feature", "properties": { "Name": "Chester County Sheriff's Office", "Description": "http:\/\/navigator.er.usgs.gov\/browse\/node\/1720859" }, "geometry": { "type": "Point", "coordinates": [ -75.6080872, 39.9584507000001, 0.0 ] } },
{ "type": "Feature", "properties": { "Name": "Williamstown Police Dept", "Description": "http:\/\/navigator.er.usgs.gov\/browse\/node\/1720864" }, "geometry": { "type": "Point", "coordinates": [ -76.62029, 40.57667, 0.0 ] } },
{ "type": "Feature", "properties": { "Name": "Ford City Chief Of Police", "Description": "http:\/\/navigator.er.usgs.gov\/browse\/node\/1720873" }, "geometry": { "type": "Point", "coordinates": [ -79.530779999999893, 40.77131, 0.0 ] } },
{ "type": "Feature", "properties": { "Name": "Hatfield Police Ofc", "Description": "http:\/\/navigator.er.usgs.gov\/browse\/node\/1720874" }, "geometry": { "type": "Point", "coordinates": [ -75.28629, 40.2856400000001, 0.0 ] } },
{ "type": "Feature", "properties": { "Name": "Pocono Mountain Police Dept", "Description": "http:\/\/navigator.er.usgs.gov\/browse\/node\/1720881" }, "geometry": { "type": "Point", "coordinates": [ -75.45601, 41.115760000000101, 0.0 ] } },
{ "type": "Feature", "properties": { "Name": "Butler County Sheriff", "Description": "http:\/\/navigator.er.usgs.gov\/browse\/node\/1720898" }, "geometry": { "type": "Point", "coordinates": [ -79.89543, 40.858130000000102, 0.0 ] } },
{ "type": "Feature", "properties": { "Name": "Boswell Borough Police Dept", "Description": "http:\/\/navigator.er.usgs.gov\/browse\/node\/1720900" }, "geometry": { "type": "Point", "coordinates": [ -79.02784, 40.16133, 0.0 ] } },
{ "type": "Feature", "properties": { "Name": "Baldwin Twp Police Dept", "Description": "http:\/\/navigator.er.usgs.gov\/browse\/node\/1720926" }, "geometry": { "type": "Point", "coordinates": [ -80.01891, 40.38001, 0.0 ] } },
{ "type": "Feature", "properties": { "Name": "Tinicum Twp Police Dept", "Description": "http:\/\/navigator.er.usgs.gov\/browse\/node\/1720934" }, "geometry": { "type": "Point", "coordinates": [ -75.09646, 40.45693, 0.0 ] } },
{ "type": "Feature", "properties": { "Name": "Apollo Police Dept", "Description": "http:\/\/navigator.er.usgs.gov\/browse\/node\/1720940" }, "geometry": { "type": "Point", "coordinates": [ -79.565699999999893, 40.58331, 0.0 ] } },
{ "type": "Feature", "properties": { "Name": "New Holland Boro Police Dept", "Description": "http:\/\/navigator.er.usgs.gov\/browse\/node\/1720941" }, "geometry": { "type": "Point", "coordinates": [ -76.07724, 40.10433, 0.0 ] } },
{ "type": "Feature", "properties": { "Name": "Mount Lebanon Police Dept", "Description": "http:\/\/navigator.er.usgs.gov\/browse\/node\/1720951" }, "geometry": { "type": "Point", "coordinates": [ -80.04734, 40.37822, 0.0 ] } },
{ "type": "Feature", "properties": { "Name": "West Mahanoy Twp Police", "Description": "http:\/\/navigator.er.usgs.gov\/browse\/node\/1720962" }, "geometry": { "type": "Point", "coordinates": [ -76.21549, 40.8241200000001, 0.0 ] } },
{ "type": "Feature", "properties": { "Name": "Fleetwood Police Dept", "Description": "http:\/\/navigator.er.usgs.gov\/browse\/node\/1720984" }, "geometry": { "type": "Point", "coordinates": [ -75.82104, 40.455480000000101, 0.0 ] } },
{ "type": "Feature", "properties": { "Name": "Trevorton State Police", "Description": "http:\/\/navigator.er.usgs.gov\/browse\/node\/1720999" }, "geometry": { "type": "Point", "coordinates": [ -76.7911, 40.86449, 0.0 ] } },
{ "type": "Feature", "properties": { "Name": "Lehighton Borough Police Dept", "Description": "http:\/\/navigator.er.usgs.gov\/browse\/node\/1721000" }, "geometry": { "type": "Point", "coordinates": [ -75.697699999999898, 40.82773, 0.0 ] } },
{ "type": "Feature", "properties": { "Name": "Shippingport Police Dept", "Description": "http:\/\/navigator.er.usgs.gov\/browse\/node\/1721006" }, "geometry": { "type": "Point", "coordinates": [ -80.411969999999897, 40.634540000000101, 0.0 ] } },
{ "type": "Feature", "properties": { "Name": "Palo Alto Police Dept", "Description": "http:\/\/navigator.er.usgs.gov\/browse\/node\/1721011" }, "geometry": { "type": "Point", "coordinates": [ -76.17146, 40.68805, 0.0 ] } },
{ "type": "Feature", "properties": { "Name": "Kittanning Bureau Of Police", "Description": "http:\/\/navigator.er.usgs.gov\/browse\/node\/1721015" }, "geometry": { "type": "Point", "coordinates": [ -79.5158, 40.81219, 0.0 ] } },
{ "type": "Feature", "properties": { "Name": "Kennedy Twp Police Dept", "Description": "http:\/\/navigator.er.usgs.gov\/browse\/node\/1721021" }, "geometry": { "type": "Point", "coordinates": [ -80.12312, 40.481200000000101, 0.0 ] } },
{ "type": "Feature", "properties": { "Name": "Stroud Area Regional Police", "Description": "http:\/\/navigator.er.usgs.gov\/browse\/node\/1721030" }, "geometry": { "type": "Point", "coordinates": [ -75.19699, 41.00035, 0.0 ] } },
{ "type": "Feature", "properties": { "Name": "Selinsgrove Police Dept", "Description": "http:\/\/navigator.er.usgs.gov\/browse\/node\/1721046" }, "geometry": { "type": "Point", "coordinates": [ -76.86345, 40.799730000000103, 0.0 ] } },
{ "type": "Feature", "properties": { "Name": "Beaver County Sheriff's Office", "Description": "http:\/\/navigator.er.usgs.gov\/browse\/node\/1721051" }, "geometry": { "type": "Point", "coordinates": [ -80.38737, 40.777830000000101, 0.0 ] } },
{ "type": "Feature", "properties": { "Name": "Ell-CO Regional Police Dept", "Description": "http:\/\/navigator.er.usgs.gov\/browse\/node\/1721054" }, "geometry": { "type": "Point", "coordinates": [ -80.01904, 40.10997, 0.0 ] } },
{ "type": "Feature", "properties": { "Name": "Barnesboro Police Dept", "Description": "http:\/\/navigator.er.usgs.gov\/browse\/node\/1721055" }, "geometry": { "type": "Point", "coordinates": [ -78.78054, 40.662410000000101, 0.0 ] } },
{ "type": "Feature", "properties": { "Name": "Peters Twp Police Adm", "Description": "http:\/\/navigator.er.usgs.gov\/browse\/node\/1721062" }, "geometry": { "type": "Point", "coordinates": [ -80.08584, 40.27718, 0.0 ] } },
{ "type": "Feature", "properties": { "Name": "Summit Hill Police Dept", "Description": "http:\/\/navigator.er.usgs.gov\/browse\/node\/1721064" }, "geometry": { "type": "Point", "coordinates": [ -75.87318, 40.82456, 0.0 ] } },
{ "type": "Feature", "properties": { "Name": "Borough Police", "Description": "http:\/\/navigator.er.usgs.gov\/browse\/node\/1721068" }, "geometry": { "type": "Point", "coordinates": [ -79.70157, 41.177430000000101, 0.0 ] } },
{ "type": "Feature", "properties": { "Name": "Butler Twp Police Adm", "Description": "http:\/\/navigator.er.usgs.gov\/browse\/node\/1721087" }, "geometry": { "type": "Point", "coordinates": [ -79.91392, 40.85093, 0.0 ] } },
{ "type": "Feature", "properties": { "Name": "Patton Twp Police Dept", "Description": "http:\/\/navigator.er.usgs.gov\/browse\/node\/1721097" }, "geometry": { "type": "Point", "coordinates": [ -77.91875, 40.8129, 0.0 ] } },
{ "type": "Feature", "properties": { "Name": "Annville Police Dept", "Description": "http:\/\/navigator.er.usgs.gov\/browse\/node\/1721127" }, "geometry": { "type": "Point", "coordinates": [ -76.51714, 40.32946, 0.0 ] } },
{ "type": "Feature", "properties": { "Name": "Tatamy Police Dept", "Description": "http:\/\/navigator.er.usgs.gov\/browse\/node\/1721145" }, "geometry": { "type": "Point", "coordinates": [ -75.24937, 40.7408, 0.0 ] } },
{ "type": "Feature", "properties": { "Name": "Boro Of Rochester Police Adm", "Description": "http:\/\/navigator.er.usgs.gov\/browse\/node\/1721162" }, "geometry": { "type": "Point", "coordinates": [ -80.28555, 40.701210000000103, 0.0 ] } },
{ "type": "Feature", "properties": { "Name": "Patterson Township Police Dept", "Description": "http:\/\/navigator.er.usgs.gov\/browse\/node\/1721178" }, "geometry": { "type": "Point", "coordinates": [ -80.33194, 40.74728, 0.0 ] } },
{ "type": "Feature", "properties": { "Name": "N Burkes Regional Police", "Description": "http:\/\/navigator.er.usgs.gov\/browse\/node\/1721205" }, "geometry": { "type": "Point", "coordinates": [ -75.91569, 40.438870000000101, 0.0 ] } },
{ "type": "Feature", "properties": { "Name": "Shillington Police Dept", "Description": "http:\/\/navigator.er.usgs.gov\/browse\/node\/1721226" }, "geometry": { "type": "Point", "coordinates": [ -75.96789, 40.30355, 0.0 ] } },
{ "type": "Feature", "properties": { "Name": "West Norriton Police Dept", "Description": "http:\/\/navigator.er.usgs.gov\/browse\/node\/1721231" }, "geometry": { "type": "Point", "coordinates": [ -75.3651, 40.12926, 0.0 ] } },
{ "type": "Feature", "properties": { "Name": "Hazleton Police Dept", "Description": "http:\/\/navigator.er.usgs.gov\/browse\/node\/1721239" }, "geometry": { "type": "Point", "coordinates": [ -75.97644, 40.95586, 0.0 ] } },
{ "type": "Feature", "properties": { "Name": "Mifflin Cnty Regional Police", "Description": "http:\/\/navigator.er.usgs.gov\/browse\/node\/1721252" }, "geometry": { "type": "Point", "coordinates": [ -77.56976, 40.61202, 0.0 ] } },
{ "type": "Feature", "properties": { "Name": "Upper Moreland Twp Police Dept", "Description": "http:\/\/navigator.er.usgs.gov\/browse\/node\/1721258" }, "geometry": { "type": "Point", "coordinates": [ -75.1186, 40.14347, 0.0 ] } },
{ "type": "Feature", "properties": { "Name": "Fairview Twp Police Dept", "Description": "http:\/\/navigator.er.usgs.gov\/browse\/node\/1721265" }, "geometry": { "type": "Point", "coordinates": [ -75.88368, 41.149810000000102, 0.0 ] } },
{ "type": "Feature", "properties": { "Name": "Hickory Township Police Dept", "Description": "http:\/\/navigator.er.usgs.gov\/browse\/node\/1721269" }, "geometry": { "type": "Point", "coordinates": [ -80.28282, 41.004660000000101, 0.0 ] } },
{ "type": "Feature", "properties": { "Name": "Orwigsburg Police Dept", "Description": "http:\/\/navigator.er.usgs.gov\/browse\/node\/1721270" }, "geometry": { "type": "Point", "coordinates": [ -76.10015, 40.65633, 0.0 ] } },
{ "type": "Feature", "properties": { "Name": "Lehigh County Sheriff", "Description": "http:\/\/navigator.er.usgs.gov\/browse\/node\/1721285" }, "geometry": { "type": "Point", "coordinates": [ -75.46702, 40.6034000000001, 0.0 ] } },
{ "type": "Feature", "properties": { "Name": "New Bethlehem Police Dept", "Description": "http:\/\/navigator.er.usgs.gov\/browse\/node\/1721286" }, "geometry": { "type": "Point", "coordinates": [ -79.3331, 41.001730000000101, 0.0 ] } },
{ "type": "Feature", "properties": { "Name": "Porter Twp Police Dept", "Description": "http:\/\/navigator.er.usgs.gov\/browse\/node\/1721287" }, "geometry": { "type": "Point", "coordinates": [ -77.24969, 41.20237, 0.0 ] } },
{ "type": "Feature", "properties": { "Name": "Cresson Boro Police Dept", "Description": "http:\/\/navigator.er.usgs.gov\/browse\/node\/1721309" }, "geometry": { "type": "Point", "coordinates": [ -78.58857, 40.46393, 0.0 ] } },
{ "type": "Feature", "properties": { "Name": "Watsontown Boro Police", "Description": "http:\/\/navigator.er.usgs.gov\/browse\/node\/1721320" }, "geometry": { "type": "Point", "coordinates": [ -76.866039999999899, 41.0868, 0.0 ] } },
{ "type": "Feature", "properties": { "Name": "Bernville Police Dept", "Description": "http:\/\/navigator.er.usgs.gov\/browse\/node\/1721332" }, "geometry": { "type": "Point", "coordinates": [ -76.11853, 40.44983, 0.0 ] } },
{ "type": "Feature", "properties": { "Name": "Richland Twp Police Dept", "Description": "http:\/\/navigator.er.usgs.gov\/browse\/node\/1721336" }, "geometry": { "type": "Point", "coordinates": [ -75.34149, 40.47821, 0.0 ] } },
{ "type": "Feature", "properties": { "Name": "Hopewell Township Police Dept", "Description": "http:\/\/navigator.er.usgs.gov\/browse\/node\/1721347" }, "geometry": { "type": "Point", "coordinates": [ -80.26314, 40.5937, 0.0 ] } },
{ "type": "Feature", "properties": { "Name": "Union Township Police Dept", "Description": "http:\/\/navigator.er.usgs.gov\/browse\/node\/1721360" }, "geometry": { "type": "Point", "coordinates": [ -80.37761, 41.0028, 0.0 ] } },
{ "type": "Feature", "properties": { "Name": "Police Dept", "Description": "http:\/\/navigator.er.usgs.gov\/browse\/node\/1721372" }, "geometry": { "type": "Point", "coordinates": [ -76.296, 40.2982200000001, 0.0 ] } },
{ "type": "Feature", "properties": { "Name": "Saint Marys Police Dept", "Description": "http:\/\/navigator.er.usgs.gov\/browse\/node\/1721382" }, "geometry": { "type": "Point", "coordinates": [ -78.557389999999899, 41.43021, 0.0 ] } },
{ "type": "Feature", "properties": { "Name": "Chief Of Police", "Description": "http:\/\/navigator.er.usgs.gov\/browse\/node\/1721400" }, "geometry": { "type": "Point", "coordinates": [ -75.96236, 41.34793, 0.0 ] } },
{ "type": "Feature", "properties": { "Name": "Norwood Boro Police Dept", "Description": "http:\/\/navigator.er.usgs.gov\/browse\/node\/1721422" }, "geometry": { "type": "Point", "coordinates": [ -75.29731, 39.891860000000101, 0.0 ] } },
{ "type": "Feature", "properties": { "Name": "Pittsburgh Police Station", "Description": "http:\/\/navigator.er.usgs.gov\/browse\/node\/1721424" }, "geometry": { "type": "Point", "coordinates": [ -80.00763, 40.42964, 0.0 ] } },
{ "type": "Feature", "properties": { "Name": "Conshohocken Police Dept", "Description": "http:\/\/navigator.er.usgs.gov\/browse\/node\/1721435" }, "geometry": { "type": "Point", "coordinates": [ -75.30729, 40.07298, 0.0 ] } },